location_id,pm2_5,pm10,no2,so2,o3,co,aqi,temperature,humidity,wind_speed,locality,latitude,longitude,country
3,2.59,9.54,0.12,0.24,46.9,193.05,1,26.2,73,5.96,NMA - Nima,5.58389,-0.19968,"{'id': 152, 'code': 'GH', 'name': 'Ghana'}"
4,2.59,9.54,0.12,0.24,46.9,193.05,1,26.2,73,5.96,NMT - Nima,5.58165,-0.19898,"{'id': 152, 'code': 'GH', 'name': 'Ghana'}"
5,2.67,9.86,0.14,0.27,46.12,190.86,1,25.56,77,5.94,JTA - Jamestown,5.5401139,-0.2103972,"{'id': 152, 'code': 'GH', 'name': 'Ghana'}"
6,2.67,9.86,0.14,0.27,46.12,190.86,1,26.19,74,5.94,ADT - Asylum Down,5.570722,-0.2120555,"{'id': 152, 'code': 'GH', 'name': 'Ghana'}"
7,2.67,9.86,0.14,0.27,46.12,190.86,1,26.01,74,5.95,ADEPA - Asylum Down,5.567833,-0.2040278,"{'id': 152, 'code': 'GH', 'name': 'Ghana'}"
8,2.67,9.86,0.14,0.27,46.12,190.86,1,26.19,74,5.94,ADA - Asylum Down,5.566722,-0.2077778,"{'id': 152, 'code': 'GH', 'name': 'Ghana'}"
9,2.57,9.31,0.13,0.25,45.98,191.62,1,26.83,69,6.04,ELC - East Legon,5.6335571,-0.1651875,"{'id': 152, 'code': 'GH', 'name': 'Ghana'}"
10,2.57,9.31,0.13,0.25,45.98,191.62,1,27.0,68,6.04,ELT - East Legon,5.6408995,-0.1695437,"{'id': 152, 'code': 'GH', 'name': 'Ghana'}"
11,2.57,9.31,0.13,0.25,45.98,191.62,1,26.93,68,6.06,ELA - East Legon,5.6408137,-0.1579063,"{'id': 152, 'code': 'GH', 'name': 'Ghana'}"
12,13.59,14.89,8.43,0.73,13.6,416.32,2,29.8,74,2.91,SPARTAN - IIT Kanpur,26.519,80.233,"{'id': 9, 'code': 'IN', 'name': 'India'}"
13,27.18,31.29,14.84,0.89,8.73,605.61,3,30.96,68,3.72,"Delhi Technological University, Delhi - CPCB",28.744,77.12,"{'id': 9, 'code': 'IN', 'name': 'India'}"
14,0.92,1.51,0.55,0.08,44.9,86.25,1,16.28,86,4.9,SPARTAN - CITEDEF,-34.56,-58.506,"{'id': 6, 'code': 'AR', 'name': 'Argentina'}"
15,27.81,32.17,15.01,0.85,8.27,601.83,3,30.75,71,3.91,IGI Airport,28.56,77.094,"{'id': 9, 'code': 'IN', 'name': 'India'}"
16,25.94,29.9,15.04,0.99,9.96,616.91,3,30.96,68,3.86,Civil Lines,28.6787,77.2262,"{'id': 9, 'code': 'IN', 'name': 'India'}"
17,27.81,32.17,15.01,0.85,8.27,601.83,3,30.73,70,3.74,"R K Puram, Delhi - DPCC",28.563262,77.186937,"{'id': 9, 'code': 'IN', 'name': 'India'}"
18,15.58,16.73,10.21,2.26,5.32,464.91,2,26.19,86,2.44,SPARTAN - Vietnam Acad. Sci.,21.048,105.8,"{'id': 56, 'code': 'VN', 'name': 'Vietnam'}"
19,0.5,0.5,0.54,0.01,34.75,113.95,1,10.18,66,2.78,MNB,47.929732,106.888629,"{'id': 47, 'code': 'MN', 'name': 'Mongolia'}"
21,110.65,122.22,15.51,9.18,5.17,385.45,5,23.86,81,1.28,Beijing,39.95,116.47,"{'id': 10, 'code': 'CN', 'name': 'China'}"
22,7.12,11.08,5.29,0.96,4.53,232.87,1,29.61,68,2.96,SPARTAN - Dhaka University,23.728,90.398,"{'id': 128, 'code': 'BD', 'name': 'Bangladesh'}"
23,0.5,0.5,0.54,0.01,34.75,113.95,1,9.23,72,2.24,Amgalan,47.913429,106.99790699999998,"{'id': 47, 'code': 'MN', 'name': 'Mongolia'}"
24,11.24,11.62,0.96,0.23,14.39,198.49,2,28.82,75,3.48,SPARTAN - NUS,1.298,103.78,"{'id': 231, 'code': 'SG', 'name': 'Singapore'}"
25,11.97,14.13,8.56,0.52,45.5,259.57,2,11.16,75,1.57,Santiago,-33.464142,-70.660797,"{'id': 3, 'code': 'CL', 'name': 'Chile'}"
26,6.42,7.71,1.27,0.19,51.44,142.96,1,10.73,76,0.61,Talcahuano,-36.737202,-73.104427,"{'id': 3, 'code': 'CL', 'name': 'Chile'}"
27,10.68,12.81,1.35,1.35,60.45,99.48,2,13.19,63,0.43,Concón,-32.924568,-71.515399,"{'id': 3, 'code': 'CL', 'name': 'Chile'}"
28,2.81,3.41,2.88,1.17,65.77,169.18,2,27.27,44,6.1,Ursynów,52.16077306,21.03916667,"{'id': 77, 'code': 'PL', 'name': 'Poland'}"
30,0.5,0.5,0.54,0.01,34.75,113.95,1,10.38,67,2.67,100 ail,47.9329056,106.9213833,"{'id': 47, 'code': 'MN', 'name': 'Mongolia'}"
31,1.04,1.52,3.1,0.37,50.05,107.96,1,22.24,59,3.47,Wekerom,52.111599999999996,5.70842,"{'id': 94, 'code': 'NL', 'name': 'Netherlands'}"
32,95.22,105.55,10.97,5.08,2.99,325.2,5,24.54,80,0.81,SPARTAN - Tsinghua University,40.01,116.333,"{'id': 10, 'code': 'CN', 'name': 'China'}"
33,0.86,1.1,4.6,0.91,51.38,108.07,1,22.2,64,5.62,Zaandam,52.420230000140556,4.832060000156797,"{'id': 94, 'code': 'NL', 'name': 'Netherlands'}"
34,13.12,39.57,3.93,1.3,76.24,100.92,2,30.72,55,5.34,SPARTAN - Weizmann Institute,31.907,34.81,"{'id': 11, 'code': 'IL', 'name': 'Israel'}"
38,8.34,9.57,4.09,0.19,43.0,229.65,1,10.05,79,1.32,Machalí,-34.241168,-70.55283,"{'id': 3, 'code': 'CL', 'name': 'Chile'}"
39,4.4,7.27,0.06,0.15,90.12,71.91,2,15.71,64,2.82,Tocopilla,-22.093082,-70.20121,"{'id': 3, 'code': 'CL', 'name': 'Chile'}"
41,1.2,2.07,4.82,0.57,56.65,116.07,1,22.32,64,5.64,Groningen,53.2178,6.5789,"{'id': 94, 'code': 'NL', 'name': 'Netherlands'}"
42,16.86,31.54,6.18,1.44,18.52,605.44,2,23.18,90,3.7,SPARTAN - Ilorin University,8.484,4.675,"{'id': 100, 'code': 'NG', 'name': 'Nigeria'}"
43,3.04,3.62,2.97,1.46,70.54,165.13,2,28.11,42,3.21,Konarskiego,52.17203333,22.27277778,"{'id': 77, 'code': 'PL', 'name': 'Poland'}"
44,0.63,1.02,1.1,0.09,47.65,98.04,1,21.71,59,5.87,Heerlen,50.9003,5.98685,"{'id': 94, 'code': 'NL', 'name': 'Netherlands'}"
45,11.57,13.83,8.54,0.47,39.48,275.21,2,10.21,80,1.83,Puente Alto,-33.591390623022,-70.594788,"{'id': 3, 'code': 'CL', 'name': 'Chile'}"
46,0.5,0.5,0.54,0.01,34.75,113.95,1,10.33,69,2.55,Bukhiin urguu,47.9176056,106.93736109999999,"{'id': 47, 'code': 'MN', 'name': 'Mongolia'}"
47,9.77,12.47,0.98,1.36,60.73,100.74,2,12.58,62,0.77,Valparaíso,-33.049743798096,-71.614167231712,"{'id': 3, 'code': 'CL', 'name': 'Chile'}"
48,0.5,0.5,0.54,0.01,34.75,113.95,1,10.18,66,2.78,Baruun 4 zam,47.9153833,106.89419440000002,"{'id': 47, 'code': 'MN', 'name': 'Mongolia'}"
49,0.54,0.69,0.28,0.08,17.57,98.41,1,29.01,66,1.99,"Phahol Yothin Rd., Khet Chatuchak",13.797855,100.551338,"{'id': 111, 'code': 'TH', 'name': 'Thailand'}"
50,27.18,31.29,14.84,0.89,8.73,605.61,3,30.94,69,3.88,"Punjabi Bagh, Delhi - DPCC",28.674045,77.131023,"{'id': 9, 'code': 'IN', 'name': 'India'}"
51,0.94,1.27,5.17,0.97,52.32,109.16,1,22.15,65,7.79,Wieringerwerf,52.803700000000006,5.05051,"{'id': 94, 'code': 'NL', 'name': 'Netherlands'}"
52,0.85,1.19,2.85,0.47,51.44,105.01,1,22.22,61,5.1,Rotterdam,51.938472000211014,4.430691999983553,"{'id': 94, 'code': 'NL', 'name': 'Netherlands'}"
53,80.97,85.19,6.56,26.95,6.87,790.39,5,21.28,92,1.45,Shenyang,41.78,123.42,"{'id': 10, 'code': 'CN', 'name': 'China'}"
54,15.18,17.76,8.74,0.63,36.93,265.36,2,11.81,80,1.34,Talagante,-33.673752071375,-70.953064737434,"{'id': 3, 'code': 'CL', 'name': 'Chile'}"
55,0.9,1.18,3.4,0.53,50.55,107.23,1,22.35,59,5.32,Utrecht,52.105,5.12446,"{'id': 94, 'code': 'NL', 'name': 'Netherlands'}"
57,0.62,0.98,0.6,0.21,17.96,125.79,1,29.62,70,2.05,"Khlong Nueng, Khlong Luang",14.040299305494,100.60873959621,"{'id': 111, 'code': 'TH', 'name': 'Thailand'}"
58,0.85,1.09,3.56,0.63,50.9,107.17,1,22.27,61,5.58,Zegveld,52.138,4.83819,"{'id': 94, 'code': 'NL', 'name': 'Netherlands'}"
59,0.5,0.5,0.61,0.01,35.49,113.49,1,11.31,62,3.05,Nisekh,47.863943,106.779094,"{'id': 47, 'code': 'MN', 'name': 'Mongolia'}"
60,5.02,11.48,3.76,2.37,65.67,101.13,2,20.29,69,6.92,Haringey,51.599302,-0.068218,"{'id': 79, 'code': 'GB', 'name': 'United Kingdom'}"
61,8.34,9.57,4.09,0.19,43.0,229.65,1,9.05,77,1.67,Machalí,-34.203524,-70.529854,"{'id': 3, 'code': 'CL', 'name': 'Chile'}"
63,1.09,1.63,2.24,0.31,56.84,104.11,1,22.16,64,5.79,Philippine,51.29449999999999,3.7494799999999997,"{'id': 94, 'code': 'NL', 'name': 'Netherlands'}"
64,0.7,1.95,0.07,0.06,32.65,98.81,1,27.46,89,1.99,Mustang Bayou C619,29.308562,-95.19991,"{'id': 155, 'code': 'US', 'name': 'United States'}"
65,4.78,5.75,1.2,0.2,53.58,130.24,1,12.07,77,1.7,Chiguayante,-36.923329602986,-73.036132300941,"{'id': 3, 'code': 'CL', 'name': 'Chile'}"
66,0.54,0.69,0.28,0.08,17.57,98.41,1,28.96,66,2.29,"Bang Khun Thian, Chom Thong",13.684229480854,100.44598735492,"{'id': 111, 'code': 'TH', 'name': 'Thailand'}"
67,10.66,12.4,1.39,1.52,63.58,95.48,2,12.88,65,0.79,Ventanas,-32.77898790221,-71.373031276855,"{'id': 3, 'code': 'CL', 'name': 'Chile'}"
68,3.14,3.79,1.13,0.2,55.72,117.53,1,11.99,76,1.66,Coronel,-37.021182877699,-73.149555550926,"{'id': 3, 'code': 'CL', 'name': 'Chile'}"
69,6.42,7.71,1.27,0.19,51.44,142.96,1,11.77,76,0.63,Concepción,-36.784653741124,-73.052063025795,"{'id': 3, 'code': 'CL', 'name': 'Chile'}"
71,0.78,1.07,1.95,0.21,48.85,102.39,1,22.16,60,5.83,Biest Houtakker,51.5184,5.14845,"{'id': 94, 'code': 'NL', 'name': 'Netherlands'}"
72,11.56,13.37,3.48,1.1,48.47,206.47,2,11.01,84,1.16,Curicó,-34.974925077541,-71.233967512329,"{'id': 3, 'code': 'CL', 'name': 'Chile'}"
73,0.82,1.97,1.4,0.05,60.5,82.15,2,5.64,61,2.08,Coyhaique,-45.579045667164,-72.049964505825,"{'id': 3, 'code': 'CL', 'name': 'Chile'}"
74,0.83,1.14,3.13,0.57,51.83,105.55,1,22.2,62,6.07,Leiden-Willem de Zwijgerlaan,52.1678,4.50756,"{'id': 94, 'code': 'NL', 'name': 'Netherlands'}"
76,0.81,1.1,3.39,0.67,52.26,106.04,1,22.14,63,6.45,De Zilk,52.296600000000005,4.51082,"{'id': 94, 'code': 'NL', 'name': 'Netherlands'}"
77,0.87,1.27,2.53,0.42,53.42,104.0,1,22.15,63,6.97,Hoek v. Holland,51.97783000007194,4.121903000365913,"{'id': 94, 'code': 'NL', 'name': 'Netherlands'}"
79,0.9,1.18,3.84,0.65,51.08,107.87,1,22.26,58,4.42,Hilversum-J. Gerardtsweg,52.23510000000001,5.18155,"{'id': 94, 'code': 'NL', 'name': 'Netherlands'}"
80,0.86,1.1,4.08,0.77,51.14,107.62,1,22.21,63,5.39,Amsterdam,52.389983000188224,4.88781099987638,"{'id': 94, 'code': 'NL', 'name': 'Netherlands'}"
81,3.14,3.79,1.13,0.2,55.72,117.53,1,11.99,76,1.66,Coronel Norte,-37.008669,-73.148086,"{'id': 3, 'code': 'CL', 'name': 'Chile'}"
82,0.83,1.1,3.73,0.72,51.7,106.83,1,22.16,64,6.06,Haarlem,52.3705,4.64232,"{'id': 94, 'code': 'NL', 'name': 'Netherlands'}"
85,1.13,1.94,3.44,0.47,51.7,111.45,1,22.32,61,5.46,Hellendoorn,52.3883,6.40293,"{'id': 94, 'code': 'NL', 'name': 'Netherlands'}"
86,0.84,1.32,1.83,0.21,48.25,101.94,1,22.18,59,6.85,De Rips-Blaarpeelweg,51.5475,5.8382,"{'id': 94, 'code': 'NL', 'name': 'Netherlands'}"
87,0.84,1.32,1.83,0.21,48.25,101.94,1,22.15,59,6.79,De Rips-Klotterpeellaan,51.5359,5.80859,"{'id': 94, 'code': 'NL', 'name': 'Netherlands'}"
90,0.5,0.5,0.54,0.01,34.75,113.95,1,10.99,66,2.84,Misheel expo,47.8943389,106.8824722,"{'id': 47, 'code': 'MN', 'name': 'Mongolia'}"
93,1.01,1.56,2.7,0.33,49.59,106.34,1,22.26,59,5.51,Nijmegen,51.8414,5.85778,"{'id': 94, 'code': 'NL', 'name': 'Netherlands'}"
94,0.54,0.69,0.28,0.08,17.57,98.41,1,29.01,66,1.99,"Din Daeng, Din Daeng",13.775373291477,100.56892844813,"{'id': 111, 'code': 'TH', 'name': 'Thailand'}"
95,0.86,1.1,4.08,0.77,51.14,107.62,1,22.21,63,5.16,Amsterdam,52.35971400001388,4.866208000411839,"{'id': 94, 'code': 'NL', 'name': 'Netherlands'}"
96,0.83,1.07,4.12,0.84,52.04,107.31,1,22.11,64,6.81,Wijk aan Zee,52.49399200004851,4.601986000379324,"{'id': 94, 'code': 'NL', 'name': 'Netherlands'}"
97,0.83,1.07,4.12,0.84,52.04,107.31,1,22.1,64,6.71,IJmuiden,52.46304000005105,4.60177600031704,"{'id': 94, 'code': 'NL', 'name': 'Netherlands'}"
98,0.86,1.1,4.08,0.77,51.14,107.62,1,22.21,63,5.39,Amsterdam,52.39397200025616,4.870156999790721,"{'id': 94, 'code': 'NL', 'name': 'Netherlands'}"
99,0.61,0.97,1.04,0.08,47.95,98.13,1,22.07,59,5.04,Maastricht-A2 Kasteel Hillenraadweg,50.8598,5.71381,"{'id': 94, 'code': 'NL', 'name': 'Netherlands'}"
100,0.83,1.1,3.73,0.72,51.7,106.83,1,22.25,63,5.4,Badhoevedorp,52.33400300025121,4.7740060003231,"{'id': 94, 'code': 'NL', 'name': 'Netherlands'}"
101,0.83,1.07,4.12,0.84,52.04,107.31,1,22.2,64,5.8,Amsterdam,52.42801700027339,4.7734780002434976,"{'id': 94, 'code': 'NL', 'name': 'Netherlands'}"
102,0.86,1.1,4.08,0.77,51.14,107.62,1,22.21,63,5.36,Amsterdam,52.381331000231505,4.845232999687698,"{'id': 94, 'code': 'NL', 'name': 'Netherlands'}"
103,25.94,29.9,15.04,0.99,9.96,616.91,3,30.92,69,3.72,"Income Tax Office, Delhi - CPCB",28.623499999999996,77.2494,"{'id': 9, 'code': 'IN', 'name': 'India'}"
135,0.54,0.69,0.28,0.08,17.57,98.41,1,28.88,66,2.09,Samut Prakan,13.664087,100.543436,"{'id': 111, 'code': 'TH', 'name': 'Thailand'}"
136,8.74,10.49,2.05,0.8,64.48,116.41,2,11.94,81,1.95,Los Vientos,-32.833639,-70.99693,"{'id': 3, 'code': 'CL', 'name': 'Chile'}"
137,5.18,12.11,3.62,2.24,63.23,102.31,2,19.65,71,7.52,Harrow,51.617327,-0.298775,"{'id': 79, 'code': 'GB', 'name': 'United Kingdom'}"
138,0.54,0.69,0.28,0.08,17.57,98.41,1,29.02,67,1.86,"Lat Phrao Rd., Wang Thonglang",13.792635009230002,100.59607755884001,"{'id': 111, 'code': 'TH', 'name': 'Thailand'}"
139,5.39,9.59,0.06,0.42,89.27,69.25,2,13.42,61,2.0,Alto Hospicio,-20.259620485825,-70.088653564453,"{'id': 3, 'code': 'CL', 'name': 'Chile'}"
140,5.39,9.59,0.06,0.42,89.27,69.25,2,15.99,62,1.89,Alto Hospicio,-20.290859340668,-70.09955406189,"{'id': 3, 'code': 'CL', 'name': 'Chile'}"
141,5.37,14.4,3.12,2.26,65.0,104.7,2,19.92,72,7.38,London,51.48879,-0.441614,"{'id': 79, 'code': 'GB', 'name': 'United Kingdom'}"
142,20.31,25.41,11.65,2.99,22.98,182.05,2,19.89,90,0.98,Chengdu,30.63,104.07,"{'id': 10, 'code': 'CN', 'name': 'China'}"
143,14.48,20.62,14.98,13.02,17.27,157.78,2,29.3,76,4.08,Shanghai,31.21,121.44,"{'id': 10, 'code': 'CN', 'name': 'China'}"
144,17.33,20.52,13.08,6.04,17.98,242.06,2,28.92,67,3.87,Guangzhou,23.12,113.32,"{'id': 10, 'code': 'CN', 'name': 'China'}"
145,5.0,8.4,0.08,0.18,93.2,71.36,2,16.45,59,3.21,Escuela E-10,-22.087,-70.193253,"{'id': 3, 'code': 'CL', 'name': 'Chile'}"
146,5.02,11.48,3.76,2.37,65.67,101.13,2,20.29,70,6.94,London,51.480499,-0.05955,"{'id': 79, 'code': 'GB', 'name': 'United Kingdom'}"
147,4.85,10.01,4.08,2.42,66.0,99.35,2,20.08,70,6.86,Greenwich,51.45258,0.070766,"{'id': 79, 'code': 'GB', 'name': 'United Kingdom'}"
148,5.02,11.48,3.76,2.37,65.67,101.13,2,20.12,70,6.8,London,51.52229,-0.125889,"{'id': 79, 'code': 'GB', 'name': 'United Kingdom'}"
149,5.2,12.94,3.44,2.31,65.33,102.92,2,20.03,71,7.0,London,51.51895,-0.265617,"{'id': 79, 'code': 'GB', 'name': 'United Kingdom'}"
150,5.02,11.48,3.76,2.37,65.67,101.13,2,19.87,69,7.01,London,51.584128,-0.125254,"{'id': 79, 'code': 'GB', 'name': 'United Kingdom'}"
151,5.02,11.48,3.76,2.37,65.67,101.13,2,20.24,69,6.71,Tower Hamlets,51.5225294860844,-0.0421550991900347,"{'id': 79, 'code': 'GB', 'name': 'United Kingdom'}"
152,5.02,11.48,3.76,2.37,65.67,101.13,2,19.92,70,6.86,London,51.54421,-0.175269,"{'id': 79, 'code': 'GB', 'name': 'United Kingdom'}"
153,5.37,14.4,3.12,2.26,65.0,104.7,2,19.93,72,7.45,London,51.49633,-0.460861,"{'id': 79, 'code': 'GB', 'name': 'United Kingdom'}"
154,5.02,11.48,3.76,2.37,65.67,101.13,2,20.13,70,6.85,London,51.52253,-0.154611,"{'id': 79, 'code': 'GB', 'name': 'United Kingdom'}"
155,5.2,12.94,3.44,2.31,65.33,102.92,2,20.05,70,6.95,London,51.52105,-0.21349199999999996,"{'id': 79, 'code': 'GB', 'name': 'United Kingdom'}"
156,5.2,12.94,3.44,2.31,65.33,102.92,2,20.08,71,7.45,London Teddington,51.42099,-0.339647,"{'id': 79, 'code': 'GB', 'name': 'United Kingdom'}"
157,4.85,10.01,4.08,2.42,66.0,99.35,2,20.15,69,6.31,Bexley,51.4659832746662,0.184877126994369,"{'id': 79, 'code': 'GB', 'name': 'United Kingdom'}"
158,5.2,12.94,3.44,2.31,65.33,102.92,2,20.0,71,7.45,London,51.425286,-0.345606,"{'id': 79, 'code': 'GB', 'name': 'United Kingdom'}"
159,5.02,11.48,3.76,2.37,65.67,101.13,2,20.21,70,6.87,London,51.4946699996591,-0.13193099964204494,"{'id': 79, 'code': 'GB', 'name': 'United Kingdom'}"
160,1.08,2.12,0.71,0.23,54.19,113.66,1,15.42,95,8.32,Derry,55.001225,-7.329115,"{'id': 79, 'code': 'GB', 'name': 'United Kingdom'}"
161,0.67,1.68,1.19,0.28,31.04,102.0,1,27.28,87,1.63,Clinton C403/C304/AH113,29.7337263,-95.2575931,"{'id': 155, 'code': 'US', 'name': 'United States'}"
162,0.96,2.05,1.06,0.25,34.84,104.79,1,27.28,88,1.85,Houston-Sugar Land-Baytown,29.670025,-95.128508,"{'id': 155, 'code': 'US', 'name': 'United States'}"
163,0.73,2.85,0.18,0.11,31.51,94.46,1,27.53,89,1.38,Danciger C618,29.144291,-95.756601,"{'id': 155, 'code': 'US', 'name': 'United States'}"
164,0.76,1.65,1.75,0.38,31.3,104.96,1,27.18,87,1.2,Houston-Sugar Land-Baytown,29.81453,-95.38769,"{'id': 155, 'code': 'US', 'name': 'United States'}"
165,1.44,2.13,3.7,1.16,29.57,115.62,1,26.74,91,0.96,UH WG Jones Forest C698,30.2362,-95.4832,"{'id': 155, 'code': 'US', 'name': 'United States'}"
166,0.67,1.68,1.19,0.28,31.04,102.0,1,27.28,87,1.58,UH Moody Tower C695,29.7176,-95.3414,"{'id': 155, 'code': 'US', 'name': 'United States'}"
167,0.7,1.95,0.07,0.06,32.65,98.81,1,27.45,89,2.31,UH Coastal Center C697,29.3879,-95.0414,"{'id': 155, 'code': 'US', 'name': 'United States'}"
168,0.67,1.68,1.19,0.28,31.04,102.0,1,27.27,88,1.56,Houston East C1/G316,29.7679965,-95.2205822,"{'id': 155, 'code': 'US', 'name': 'United States'}"
169,0.67,1.68,1.19,0.28,31.04,102.0,1,27.25,86,1.42,Houston Texas Avenue C411,29.752778,-95.350278,"{'id': 155, 'code': 'US', 'name': 'United States'}"
170,0.65,2.46,0.12,0.09,30.92,95.36,1,27.59,89,1.67,Lake Jackson C1016,29.0437592,-95.4729462,"{'id': 155, 'code': 'US', 'name': 'United States'}"
171,0.68,2.32,0.48,0.17,32.21,96.05,1,27.26,88,1.51,U of H,29.5741,-95.6497,"{'id': 155, 'code': 'US', 'name': 'United States'}"
172,0.96,2.05,1.06,0.25,34.84,104.79,1,27.3,88,1.59,HRM,29.7647877,-95.1785379,"{'id': 155, 'code': 'US', 'name': 'United States'}"
173,0.66,2.0,0.72,0.2,32.12,96.78,1,27.18,88,1.33,Houston-Sugar Land-Baytown,29.7233,-95.6358,"{'id': 155, 'code': 'US', 'name': 'United States'}"
174,1.44,2.56,1.37,0.3,40.59,110.62,1,27.18,89,1.19,Wallisville Road C617,29.821389,-94.99,"{'id': 155, 'code': 'US', 'name': 'United States'}"
175,0.89,2.15,0.07,0.05,34.78,101.54,1,27.45,88,2.74,Texas City Ball Park A147/C1022,29.3852338,-94.9315197,"{'id': 155, 'code': 'US', 'name': 'United States'}"
176,0.63,2.4,0.07,0.08,30.15,96.43,1,27.65,88,2.01,Freeport South Avenue I C1012,28.96443,-95.35483,"{'id': 155, 'code': 'US', 'name': 'United States'}"
177,1.1,2.11,1.56,0.34,35.94,107.79,1,27.18,89,1.18,Sheldon C551,29.8586111,-95.1602778,"{'id': 155, 'code': 'US', 'name': 'United States'}"
178,1.44,2.13,3.7,1.16,29.57,115.62,1,26.51,92,1.34,Conroe Relocated C78/A321,30.3503017,-95.4251278,"{'id': 155, 'code': 'US', 'name': 'United States'}"
179,1.08,2.29,0.5,0.14,36.72,104.56,1,27.44,88,2.67,Texas City 34th St. C620,29.4057,-94.94712,"{'id': 155, 'code': 'US', 'name': 'United States'}"
180,1.1,2.11,1.56,0.34,35.94,107.79,1,27.22,88,1.48,Channelview C15/AH115,29.8027073,-95.1254948,"{'id': 155, 'code': 'US', 'name': 'United States'}"
181,0.67,1.84,0.95,0.24,31.58,99.39,1,27.23,87,1.37,Houston Southwest Freeway C1066,29.7216,-95.49265,"{'id': 155, 'code': 'US', 'name': 'United States'}"
183,0.96,2.05,1.06,0.25,34.84,104.79,1,27.29,88,1.61,Lynchburg Ferry C1015/A165,29.7616528,-95.0813861,"{'id': 155, 'code': 'US', 'name': 'United States'}"
184,1.1,2.11,1.56,0.34,35.94,107.79,1,27.13,89,1.04,Crosby Library C553,29.9208333,-95.0683333,"{'id': 155, 'code': 'US', 'name': 'United States'}"
186,0.76,1.65,1.75,0.38,31.3,104.96,1,27.13,88,0.93,Houston-Sugar Land-Baytown,29.9011,-95.3261,"{'id': 155, 'code': 'US', 'name': 'United States'}"
187,0.67,1.84,0.95,0.24,31.58,99.39,1,27.23,87,1.43,Houston-Sugar Land-Baytown,29.6958,-95.4992,"{'id': 155, 'code': 'US', 'name': 'United States'}"
188,0.67,1.84,0.95,0.24,31.58,99.39,1,27.26,88,1.56,Houston-Sugar Land-Baytown,29.6239,-95.4742,"{'id': 155, 'code': 'US', 'name': 'United States'}"
189,0.76,1.65,1.75,0.38,31.3,104.96,1,27.06,89,0.98,Atascocita C560,29.961944,-95.235,"{'id': 155, 'code': 'US', 'name': 'United States'}"
190,1.73,2.66,3.54,1.23,35.02,117.47,1,27.04,92,1.5,Huffman Wolf Road C563,30.05786,-95.06147,"{'id': 155, 'code': 'US', 'name': 'United States'}"
191,0.83,2.0,0.56,0.15,33.74,101.8,1,27.34,88,2.07,Houston-Sugar Land-Baytown,29.5831,-95.0156,"{'id': 155, 'code': 'US', 'name': 'United States'}"
192,0.7,1.66,1.35,0.31,31.67,101.22,1,27.16,87,1.15,Houston-Sugar Land-Baytown,29.8342,-95.4892,"{'id': 155, 'code': 'US', 'name': 'United States'}"
193,0.67,1.68,1.19,0.28,31.04,102.0,1,27.27,87,1.75,Houston-Sugar Land-Baytown,29.6256,-95.2672,"{'id': 155, 'code': 'US', 'name': 'United States'}"
194,0.76,1.65,1.75,0.38,31.3,104.96,1,27.2,88,1.24,Houston North Wayside C405,29.8280859,-95.2840958,"{'id': 155, 'code': 'US', 'name': 'United States'}"
195,0.67,1.68,1.19,0.28,31.04,102.0,1,27.28,87,1.71,Houston-Sugar Land-Baytown,29.68639,-95.294724,"{'id': 155, 'code': 'US', 'name': 'United States'}"
196,0.64,1.67,0.95,0.24,32.04,97.5,1,27.13,88,1.21,West Houston C554,29.8330556,-95.6569444,"{'id': 155, 'code': 'US', 'name': 'United States'}"
197,1.26,2.42,0.94,0.22,38.65,107.59,1,27.28,88,1.67,Baytown Wetlands Center C552,29.7330556,-94.9847222,"{'id': 155, 'code': 'US', 'name': 'United States'}"
198,0.67,1.84,0.95,0.24,31.58,99.39,1,27.15,88,1.21,Bunker Hill Village C562,29.778333,-95.538056,"{'id': 155, 'code': 'US', 'name': 'United States'}"
199,1.44,2.56,1.37,0.3,40.59,110.62,1,27.18,89,1.19,Houston-Sugar Land-Baytown,29.823319,-94.983786,"{'id': 155, 'code': 'US', 'name': 'United States'}"
200,1.07,1.89,2.53,0.73,30.62,108.42,1,26.95,89,0.61,Meyer Park C561,30.011667,-95.5225,"{'id': 155, 'code': 'US', 'name': 'United States'}"
202,0.89,2.15,0.07,0.05,34.78,101.54,1,29.0,78,3.22,Galveston 99th St. C1034/A320/X183,29.2544736,-94.8612886,"{'id': 155, 'code': 'US', 'name': 'United States'}"
203,0.58,1.68,0.56,0.16,32.41,93.8,1,27.05,89,1.34,Katy Park C559,29.8105556,-95.8061111,"{'id': 155, 'code': 'US', 'name': 'United States'}"
204,0.59,1.71,0.63,0.17,30.78,99.04,1,27.29,88,1.62,Manvel Croix Park C84,29.5204432,-95.3925089,"{'id': 155, 'code': 'US', 'name': 'United States'}"
205,0.84,1.7,1.68,0.46,31.47,102.42,1,26.91,91,0.85,Northwest Harris Co. C26/A110/X154,30.039524,-95.6739508,"{'id': 155, 'code': 'US', 'name': 'United States'}"
206,0.59,1.71,0.63,0.17,30.78,99.04,1,27.29,88,1.69,Tom Bass C558,29.5894444,-95.3536111,"{'id': 155, 'code': 'US', 'name': 'United States'}"
207,5.37,7.33,0.74,0.33,111.31,87.03,3,13.87,49,2.79,MMFRA1001,39.482481,-121.221235,"{'id': 155, 'code': 'US', 'name': 'United States'}"
209,6.84,10.14,0.26,0.09,103.93,88.12,3,14.59,66,0.59,Tooele,40.539299,-112.299797,"{'id': 155, 'code': 'US', 'name': 'United States'}"
210,5.06,6.1,1.64,0.13,44.91,135.99,1,11.52,75,0.92,Tomé,-36.601713211434,-72.958522830688,"{'id': 3, 'code': 'CL', 'name': 'Chile'}"
211,4.97,15.95,0.33,0.71,79.05,76.55,2,12.55,88,0.63,Felton Cal-Fire,37.0481,-122.074603,"{'id': 155, 'code': 'US', 'name': 'United States'}"
212,8.2,8.89,1.32,0.36,65.35,119.27,2,21.26,84,2.66,Fort Smith,35.408138,-94.524414,"{'id': 155, 'code': 'US', 'name': 'United States'}"
213,21.3,21.81,0.3,0.02,111.74,106.76,3,15.66,65,0.99,TWIN FALLS,42.565089,-114.494717,"{'id': 155, 'code': 'US', 'name': 'United States'}"
214,5.37,7.33,0.74,0.33,111.31,87.03,3,13.87,49,2.79,MMFRA1001,39.482385,-121.221128,"{'id': 155, 'code': 'US', 'name': 'United States'}"
215,4.62,5.02,5.32,0.63,63.77,143.52,2,15.49,74,2.22,TUSCOLA,43.61,-83.36,"{'id': 155, 'code': 'US', 'name': 'United States'}"
216,4.99,5.28,1.76,1.55,85.17,122.64,2,15.93,81,1.81,South Bend-Mishawaka,41.696667,-86.214722,"{'id': 155, 'code': 'US', 'name': 'United States'}"
217,5.43,5.68,2.37,1.17,83.65,120.59,2,16.37,78,2.06,Lafayette,40.431667,-86.8525,"{'id': 155, 'code': 'US', 'name': 'United States'}"
218,4.99,5.18,1.93,1.36,87.9,118.98,2,17.07,80,2.08,Chicago-Naperville-Joliet,41.617814,-87.199533,"{'id': 155, 'code': 'US', 'name': 'United States'}"
219,7.37,7.87,2.18,2.01,93.46,121.1,2,16.79,79,2.14,Columbus,39.237457,-85.891332,"{'id': 155, 'code': 'US', 'name': 'United States'}"
220,5.68,6.05,1.94,0.53,88.24,122.41,2,15.46,77,2.54,WHITLEY,41.169722,-85.629444,"{'id': 155, 'code': 'US', 'name': 'United States'}"
221,6.5,6.86,2.47,1.16,81.91,122.01,2,16.29,75,1.8,Indianapolis,39.810833,-86.114444,"{'id': 155, 'code': 'US', 'name': 'United States'}"
222,5.54,5.83,2.91,1.39,72.55,124.19,2,17.52,75,2.19,Terre Haute,39.485987,-87.401312,"{'id': 155, 'code': 'US', 'name': 'United States'}"
223,5.27,5.48,2.13,1.37,87.19,119.39,2,17.14,80,2.0,Chicago-Naperville-Joliet,41.606563,-87.305015,"{'id': 155, 'code': 'US', 'name': 'United States'}"
224,6.95,7.42,2.66,0.67,83.34,130.29,2,15.86,72,2.46,Fort Wayne-Beacon St,41.094965,-85.101816,"{'id': 155, 'code': 'US', 'name': 'United States'}"
225,6.66,7.19,2.45,2.71,98.14,118.34,2,17.64,76,3.01,New Albany,38.30703,-85.832974,"{'id': 155, 'code': 'US', 'name': 'United States'}"
226,5.57,5.93,1.72,0.79,84.85,122.89,2,15.76,80,1.87,Elkhart-Goshen,41.657155,-85.968446,"{'id': 155, 'code': 'US', 'name': 'United States'}"
227,5.73,6.06,2.35,1.0,84.45,121.99,2,15.89,78,2.39,Kokomo,40.481347,-86.109688,"{'id': 155, 'code': 'US', 'name': 'United States'}"
228,6.85,7.21,2.08,1.37,88.13,119.56,2,16.16,75,2.15,Indianapolis,39.960884,-85.939546,"{'id': 155, 'code': 'US', 'name': 'United States'}"
229,10.12,10.93,2.08,0.33,65.87,121.42,2,21.65,84,1.99,Arkadelphia,34.1795,-93.0988,"{'id': 155, 'code': 'US', 'name': 'United States'}"
230,20.32,29.57,4.76,5.35,179.07,153.67,4,18.34,51,1.89,Riverside-San Bernardino-Ontario,34.894054,-117.024756,"{'id': 155, 'code': 'US', 'name': 'United States'}"
231,16.71,26.46,2.57,5.25,157.91,134.17,4,16.0,55,0.58,SAN BERNARDINO,34.4101,-116.906874,"{'id': 155, 'code': 'US', 'name': 'United States'}"
232,15.1,21.73,1.67,1.77,154.37,111.39,4,19.49,40,0.91,Riverside-San Bernardino-Ontario,35.774455,-117.372109,"{'id': 155, 'code': 'US', 'name': 'United States'}"
233,16.65,17.3,0.62,0.14,115.25,110.4,3,13.39,86,1.62,Spokane,47.663962,-117.25765,"{'id': 155, 'code': 'US', 'name': 'United States'}"
234,9.62,10.36,0.41,0.03,101.78,88.95,3,11.64,59,1.9,WALLOWA,45.426351,-117.296066,"{'id': 155, 'code': 'US', 'name': 'United States'}"
235,25.94,29.9,15.04,0.99,9.96,616.91,3,30.97,69,3.64,"Anand Vihar, New Delhi - DPCC",28.646835,77.316032,"{'id': 9, 'code': 'IN', 'name': 'India'}"
236,25.94,29.9,15.04,0.99,9.96,616.91,3,30.77,69,3.89,"Mandir Marg, Delhi - DPCC",28.6341,77.2005,"{'id': 9, 'code': 'IN', 'name': 'India'}"
237,7.26,23.54,0.2,0.48,74.61,81.34,2,20.25,76,2.0,San Ysidro,32.543475,-117.029028,"{'id': 155, 'code': 'US', 'name': 'United States'}"
238,8.4,8.74,1.33,1.64,84.62,105.8,2,20.49,72,2.28,Maryland Heights,38.7108,-90.4758,"{'id': 155, 'code': 'US', 'name': 'United States'}"
239,5.92,20.33,0.32,0.09,98.63,85.39,2,26.56,51,0.72,LA PAZ,34.243889,-113.558611,"{'id': 155, 'code': 'US', 'name': 'United States'}"
240,3.99,4.51,3.75,1.48,103.89,125.18,3,17.47,66,4.13,New Haven-Milford,41.5503,-73.0442,"{'id': 155, 'code': 'US', 'name': 'United States'}"
241,0.86,1.24,2.75,0.46,51.98,104.66,1,22.18,62,4.68,Pernis-Soetemanweg,51.8879,4.38881,"{'id': 94, 'code': 'NL', 'name': 'Netherlands'}"
242,5.0,5.54,3.57,0.58,66.93,126.33,2,12.74,90,1.29,FOREST,45.5639,-88.81,"{'id': 155, 'code': 'US', 'name': 'United States'}"
243,7.85,9.2,1.74,0.42,79.66,116.5,2,20.14,86,3.31,ELDOSPGS,37.695801,-94.037498,"{'id': 155, 'code': 'US', 'name': 'United States'}"
244,8.42,8.87,1.61,0.75,88.76,111.67,2,19.55,83,1.78,Kansas City,39.303056,-94.376389,"{'id': 155, 'code': 'US', 'name': 'United States'}"
245,8.75,9.1,1.16,1.81,87.52,103.89,2,20.51,76,1.83,Pacific,38.490299,-90.705299,"{'id': 155, 'code': 'US', 'name': 'United States'}"
246,9.13,11.05,2.16,0.67,69.74,110.69,2,19.67,84,3.11,Hillcrest HS,37.256136,-93.299886,"{'id': 155, 'code': 'US', 'name': 'United States'}"
247,7.71,8.88,2.64,0.62,60.55,121.91,2,20.22,85,3.45,CARTHAGE,37.198286,-94.317246,"{'id': 155, 'code': 'US', 'name': 'United States'}"
248,7.97,8.32,1.29,1.55,86.56,106.2,2,20.28,71,2.34,MRGRETTA,38.673172,-90.239086,"{'id': 155, 'code': 'US', 'name': 'United States'}"
249,7.98,8.4,1.75,2.17,97.47,113.89,2,20.56,70,3.07,Farrar,37.701893,-89.697655,"{'id': 155, 'code': 'US', 'name': 'United States'}"
250,8.18,8.53,1.22,1.7,87.99,105.31,2,20.51,74,2.46,ARNOLD,38.448633,-90.39854,"{'id': 155, 'code': 'US', 'name': 'United States'}"
251,9.13,11.05,2.16,0.67,69.74,110.69,2,19.46,83,3.21,Fellows Lake,37.31951,-93.204635,"{'id': 155, 'code': 'US', 'name': 'United States'}"
252,9.57,9.98,1.1,1.88,92.37,106.48,2,19.35,75,2.34,Buick NE,37.652142,-91.11689,"{'id': 155, 'code': 'US', 'name': 'United States'}"
253,8.98,9.37,0.95,2.16,97.72,103.79,2,20.16,75,2.31,BONTERRE,37.8969,-90.4222,"{'id': 155, 'code': 'US', 'name': 'United States'}"
254,7.76,8.12,1.36,1.4,85.15,107.1,2,20.36,71,2.53,WEST ALTON,38.8708,-90.224403,"{'id': 155, 'code': 'US', 'name': 'United States'}"
255,8.3,8.68,1.66,1.09,79.64,102.87,2,20.29,78,2.23,MONROE,39.4751,-91.78899,"{'id': 155, 'code': 'US', 'name': 'United States'}"
256,9.01,10.57,1.68,0.71,77.24,106.71,2,19.34,84,3.03,CHARLSTN,37.1231,-93.2631,"{'id': 155, 'code': 'US', 'name': 'United States'}"
257,6.72,6.9,2.56,1.12,76.76,121.64,2,19.04,81,2.36,ANDREW,39.9544,-94.849,"{'id': 155, 'code': 'US', 'name': 'United States'}"
258,7.97,8.35,1.36,0.62,91.11,111.01,2,19.38,83,2.02,Trimble,39.530602,-94.555801,"{'id': 155, 'code': 'US', 'name': 'United States'}"
259,8.46,8.87,1.76,0.54,82.25,115.16,2,19.87,84,1.07,Kansas City,39.10465,-94.57055,"{'id': 155, 'code': 'US', 'name': 'United States'}"
260,7.11,7.33,2.0,0.75,80.92,118.45,2,19.54,83,2.29,St. Joseph,39.741667,-94.858333,"{'id': 155, 'code': 'US', 'name': 'United States'}"
261,8.22,8.61,1.56,0.58,86.69,113.09,2,19.49,84,1.72,Rocky Creek,39.331913,-94.580841,"{'id': 155, 'code': 'US', 'name': 'United States'}"
262,8.45,8.76,1.45,1.32,86.49,103.35,2,20.25,66,2.37,NWBLMFLD,38.706,-92.093,"{'id': 155, 'code': 'US', 'name': 'United States'}"
263,8.19,8.61,1.47,0.88,92.92,109.61,2,19.29,83,1.88,Watkins Mill State P,39.407452,-94.265373,"{'id': 155, 'code': 'US', 'name': 'United States'}"
264,8.23,8.55,1.46,1.44,81.87,107.01,2,20.42,73,2.7,Orchard Farm,38.9022,-90.4469,"{'id': 155, 'code': 'US', 'name': 'United States'}"
265,0.86,1.24,2.75,0.46,51.98,104.66,1,22.19,62,4.82,Botlek,51.8701,4.31806,"{'id': 94, 'code': 'NL', 'name': 'Netherlands'}"
266,6.12,6.57,8.5,0.74,64.05,157.49,2,17.76,60,2.95,Davidsonville,38.9025,-76.653099,"{'id': 155, 'code': 'US', 'name': 'United States'}"
267,3.42,3.75,2.62,0.68,76.28,119.62,2,15.7,60,2.67,Gettysburg,39.9231,-77.3078,"{'id': 155, 'code': 'US', 'name': 'United States'}"
268,9.36,10.05,2.97,3.99,107.89,123.87,3,15.95,72,3.06,Cincinnati-Middletown,39.5327,-84.7286,"{'id': 155, 'code': 'US', 'name': 'United States'}"
269,4.25,8.88,2.24,0.95,57.44,103.19,1,19.63,68,8.41,Northampton Kingsthorpe,52.271886,-0.879898,"{'id': 79, 'code': 'GB', 'name': 'United Kingdom'}"
270,0.7,0.91,1.47,0.05,58.35,95.17,1,10.01,84,3.23,Los Angeles,-37.463035064801,-72.324575155457,"{'id': 3, 'code': 'CL', 'name': 'Chile'}"
271,9.44,11.19,1.08,1.49,66.18,92.46,2,12.82,66,0.75,Campiche,-32.736065,-71.450827,"{'id': 3, 'code': 'CL', 'name': 'Chile'}"
272,6.19,6.44,3.79,0.78,61.86,128.42,2,17.41,76,2.13,Champaign-Urbana,40.0519,-88.3724,"{'id': 155, 'code': 'US', 'name': 'United States'}"
273,5.5,5.82,1.25,2.16,103.55,109.05,3,18.16,71,3.01,Vincennes,38.7408,-87.4853,"{'id': 155, 'code': 'US', 'name': 'United States'}"
274,4.21,5.11,8.41,1.96,85.08,152.93,2,17.11,63,2.89,Reading,40.3833,-75.9686,"{'id': 155, 'code': 'US', 'name': 'United States'}"
275,2.11,2.56,9.5,1.35,69.16,147.38,2,17.36,66,2.98,Valley Central,41.5231,-74.215,"{'id': 155, 'code': 'US', 'name': 'United States'}"
276,6.79,20.86,0.52,1.04,84.26,75.22,2,15.71,87,0.88,San Luis Obispo-Paso Robles,35.36639,-120.8426,"{'id': 155, 'code': 'US', 'name': 'United States'}"
277,5.51,5.67,1.1,1.05,91.72,110.39,2,16.75,86,2.74,JO DAVIESS,42.2869,-89.9997,"{'id': 155, 'code': 'US', 'name': 'United States'}"
278,5.55,5.93,2.0,0.82,94.25,110.21,2,19.65,77,0.49,CLAIBORNE,36.47,-83.83,"{'id': 155, 'code': 'US', 'name': 'United States'}"
279,4.09,4.56,0.17,0.06,71.75,103.33,2,23.73,94,1.21,LIBERTY,30.1103,-84.9903,"{'id': 155, 'code': 'US', 'name': 'United States'}"
280,4.24,18.05,0.17,0.03,73.16,80.06,2,27.46,47,1.15,Phoenix-Mesa-Scottsdale,33.461807,-112.128044,"{'id': 155, 'code': 'US', 'name': 'United States'}"
281,0.92,1.22,6.1,0.53,65.31,128.43,2,17.43,77,4.34,"Eliot, Sawgrass Lane",43.111364,-70.76973,"{'id': 155, 'code': 'US', 'name': 'United States'}"
282,3.56,3.74,0.22,0.12,93.4,67.05,2,8.08,75,2.37,SUBLETTE,42.8698,-109.8708,"{'id': 155, 'code': 'US', 'name': 'United States'}"
283,4.73,5.15,2.37,2.65,82.37,116.9,2,15.04,69,1.3,State College,40.7208,-77.9319,"{'id': 155, 'code': 'US', 'name': 'United States'}"
284,5.29,5.59,2.5,3.37,112.93,128.44,3,14.0,78,0.65,WEXFORD,44.180901,-85.738998,"{'id': 155, 'code': 'US', 'name': 'United States'}"
285,0.89,0.96,0.29,0.27,90.32,64.66,2,13.05,78,2.1,ALBERTA,53.493889,-114.449722,"{'id': 156, 'code': 'CA', 'name': 'Canada'}"
286,16.78,17.98,4.02,0.82,8.4,261.05,2,29.7,69,3.06,Collectorate - Gaya - BSPCB,24.7489694,84.9438395,"{'id': 9, 'code': 'IN', 'name': 'India'}"
287,4.1,4.74,0.89,2.35,100.78,77.76,3,14.53,72,2.99,ALBERTA,54.216473,-111.50264,"{'id': 156, 'code': 'CA', 'name': 'Canada'}"
288,7.55,10.99,0.47,1.4,106.22,89.68,3,15.46,67,1.49,Salt Lake City,40.733501,-111.87169600000001,"{'id': 155, 'code': 'US', 'name': 'United States'}"
289,5.16,5.42,1.13,0.95,101.25,98.97,3,21.49,66,2.43,Nashville-Davidson--Murfreesboro,36.1767,-86.7386,"{'id': 155, 'code': 'US', 'name': 'United States'}"
292,10.68,12.81,1.35,1.35,60.45,99.48,2,12.79,63,0.5,Concón,-32.929552,-71.440571,"{'id': 3, 'code': 'CL', 'name': 'Chile'}"
293,0.67,1.84,0.36,0.64,61.33,112.17,2,9.74,74,1.07,Anchorage,61.205861,-149.8246,"{'id': 155, 'code': 'US', 'name': 'United States'}"
294,1.9,4.29,4.22,0.7,41.33,97.08,1,11.2,67,0.51,Puerto Montt,-41.4795069236,-72.968755930145,"{'id': 3, 'code': 'CL', 'name': 'Chile'}"
295,5.0,8.4,0.08,0.18,93.2,71.36,2,16.69,60,3.18,Gendarmería,-22.063792,-70.185945,"{'id': 3, 'code': 'CL', 'name': 'Chile'}"
296,4.4,7.27,0.06,0.15,90.12,71.91,2,15.71,64,2.82,Tocopilla,-22.111064,-70.210828,"{'id': 3, 'code': 'CL', 'name': 'Chile'}"
297,1.48,1.55,0.23,0.06,75.77,66.6,2,12.77,60,1.7,ALBERTA,53.1325,-117.09111,"{'id': 156, 'code': 'CA', 'name': 'Canada'}"
298,4.1,4.8,0.53,0.41,104.74,75.28,3,14.1,75,2.59,ALBERTA,53.800117,-112.927795,"{'id': 156, 'code': 'CA', 'name': 'Canada'}"
299,9.48,11.2,4.95,0.5,59.59,187.2,1,11.42,75,1.59,Quilicura,-33.365775677885,-70.748288055225,"{'id': 3, 'code': 'CL', 'name': 'Chile'}"
300,5.47,5.96,7.34,0.8,68.47,151.37,2,17.79,56,2.41,Baltimore-Towson,39.1694,-76.6281,"{'id': 155, 'code': 'US', 'name': 'United States'}"
301,27.81,32.17,15.01,0.85,8.27,601.83,3,30.75,71,3.77,"Vikas Sadan, Gurugram - HSPCB",28.4501238,77.0263051,"{'id': 9, 'code': 'IN', 'name': 'India'}"
304,0.64,1.06,1.1,0.14,39.81,74.89,1,8.73,71,1.94,Sydney South-west,-34.06666669999999,150.7952778,"{'id': 177, 'code': 'AU', 'name': 'Australia'}"
305,10.35,13.7,1.11,0.53,113.56,102.01,3,14.73,73,1.25,CACHE,41.842778,-111.85193999999998,"{'id': 155, 'code': 'US', 'name': 'United States'}"
306,5.66,5.79,1.36,0.22,67.31,127.57,2,21.71,90,2.49,Skiatook,36.3572,-96.0,"{'id': 155, 'code': 'US', 'name': 'United States'}"
307,6.34,8.76,1.1,1.26,74.71,87.68,2,13.57,90,0.63,Squamish,49.7064,-123.1544,"{'id': 156, 'code': 'CA', 'name': 'Canada'}"
308,1.44,2.56,1.37,0.3,40.59,110.62,1,27.18,89,1.19,Baytown Eastpoint C1,29.812,-94.9878,"{'id': 155, 'code': 'US', 'name': 'United States'}"
309,1.97,2.08,0.34,0.22,68.05,77.7,2,28.22,67,0.99,Obispado,25.67555,-100.33833,"{'id': 157, 'code': 'MX', 'name': 'Mexico'}"
310,0.54,0.69,0.28,0.08,17.57,98.41,1,28.92,65,2.18,"Hiran Ruchi, Thon Buri",13.732878086814,100.48601837802,"{'id': 111, 'code': 'TH', 'name': 'Thailand'}"
311,6.78,7.18,2.54,1.33,83.17,123.27,2,16.44,75,1.75,Indpls- Illinois St,39.768056,-86.16,"{'id': 155, 'code': 'US', 'name': 'United States'}"
312,5.56,5.77,2.33,1.38,86.49,119.8,2,17.21,80,1.9,East Chicago Post Of,41.628611,-87.461389,"{'id': 155, 'code': 'US', 'name': 'United States'}"
313,8.57,19.94,0.73,0.23,113.06,92.3,3,24.66,44,1.03,RT,36.139881,-115.175572,"{'id': 155, 'code': 'US', 'name': 'United States'}"
314,6.78,7.18,2.54,1.33,83.17,123.27,2,16.41,75,1.76,Indianapolis,39.787933,-86.13088,"{'id': 155, 'code': 'US', 'name': 'United States'}"
315,7.45,7.94,1.83,2.02,97.15,117.96,2,16.59,78,2.34,Columbus,39.294322,-85.766845,"{'id': 155, 'code': 'US', 'name': 'United States'}"
316,10.17,10.9,0.33,0.2,110.32,89.34,3,13.84,56,1.45,YPT Campbell Ranch,39.063033,-119.2044,"{'id': 155, 'code': 'US', 'name': 'United States'}"
317,9.39,22.74,0.55,0.23,113.95,92.25,3,22.42,42,0.16,Las Vegas Paiute,36.357778,-115.361389,"{'id': 155, 'code': 'US', 'name': 'United States'}"
318,5.45,6.04,2.88,3.09,73.84,131.68,2,22.47,93,2.96,Texarkana,33.435489,-94.075671,"{'id': 155, 'code': 'US', 'name': 'United States'}"
319,3.11,5.92,0.28,0.52,45.12,94.63,1,28.68,89,4.42,Brownsville-Harlingen,26.200278,-97.712501,"{'id': 155, 'code': 'US', 'name': 'United States'}"
320,3.66,6.26,0.57,0.63,82.44,83.35,2,13.69,70,1.05,Cortina Rancheria,39.015,-122.286111,"{'id': 155, 'code': 'US', 'name': 'United States'}"
321,2.16,3.38,1.16,0.33,72.43,97.15,2,25.52,88,2.56,Killeen-Temple-Fort Hood,31.122527,-97.431158,"{'id': 155, 'code': 'US', 'name': 'United States'}"
322,7.2,7.73,2.89,1.99,86.04,127.42,2,16.81,79,1.93,Bloomington,39.263914,-86.292261,"{'id': 155, 'code': 'US', 'name': 'United States'}"
323,9.44,11.19,1.08,1.49,66.18,92.46,2,12.87,65,0.57,Loncura,-32.795151048047,-71.533019680176,"{'id': 3, 'code': 'CL', 'name': 'Chile'}"
326,6.76,7.42,1.14,0.15,75.65,122.2,2,22.55,97,2.77,Jackson,32.329042,-90.182659,"{'id': 155, 'code': 'US', 'name': 'United States'}"
327,4.09,16.78,0.18,0.06,66.51,81.01,2,27.42,50,1.14,PINAL,33.11753,-111.88491,"{'id': 155, 'code': 'US', 'name': 'United States'}"
328,6.09,6.54,3.85,0.75,90.4,119.19,2,15.67,75,0.15,Linville Falls,35.9722,-81.9331,"{'id': 155, 'code': 'US', 'name': 'United States'}"
329,5.47,6.98,2.96,0.39,78.79,111.83,2,10.43,73,0.54,YANCEY,35.765413,-82.264944,"{'id': 155, 'code': 'US', 'name': 'United States'}"
330,7.7,10.59,0.68,3.61,104.55,89.95,3,14.93,70,1.23,North Provo,40.253502,-111.6632,"{'id': 155, 'code': 'US', 'name': 'United States'}"
331,7.7,10.59,0.68,3.61,104.55,89.95,3,14.88,69,1.1,Provo-Orem,40.3414,-111.71360000000001,"{'id': 155, 'code': 'US', 'name': 'United States'}"
332,9.48,11.2,4.95,0.5,59.59,187.2,1,11.42,75,1.59,QUILICURA ,-33.344152616081,-70.739593505859,"{'id': 3, 'code': 'CL', 'name': 'Chile'}"
333,9.48,11.2,4.95,0.5,59.59,187.2,1,11.42,75,1.59,QUILICURA ,-33.34970931173,-70.724530220031,"{'id': 3, 'code': 'CL', 'name': 'Chile'}"
334,0.52,1.08,0.86,0.34,42.48,98.59,1,29.24,82,2.04,Miami-Fort Lauderdale-Miami Beach,25.7947,-80.2156,"{'id': 155, 'code': 'US', 'name': 'United States'}"
335,1.33,1.8,0.78,0.45,44.0,100.62,1,29.32,83,1.24,Miami-Fort Lauderdale-Miami Beach,25.4719,-80.4828,"{'id': 155, 'code': 'US', 'name': 'United States'}"
336,0.57,1.02,0.95,0.3,50.8,76.56,1,9.56,69,3.59,Sydney East,-33.9177778,151.1347222,"{'id': 177, 'code': 'AU', 'name': 'Australia'}"
337,3.19,7.49,1.47,0.55,61.29,106.63,2,18.91,73,7.17,Birmingham Tyburn,52.511722,-1.830583,"{'id': 79, 'code': 'GB', 'name': 'United Kingdom'}"
338,8.87,9.45,3.91,2.28,44.61,158.61,1,17.77,62,1.24,GUANAJUATO,20.9479,-101.4258,"{'id': 157, 'code': 'MX', 'name': 'Mexico'}"
339,1.96,3.3,1.87,0.58,64.22,102.74,2,24.62,91,2.44,Waco,31.6531,-97.0706,"{'id': 155, 'code': 'US', 'name': 'United States'}"
341,3.96,4.35,0.17,0.06,74.6,106.14,2,24.82,93,4.23,Tallahassee,30.0842,-84.1617,"{'id': 155, 'code': 'US', 'name': 'United States'}"
342,4.38,5.13,11.57,1.88,86.8,165.71,2,17.11,62,2.96,Lancaster,40.0467,-76.2833,"{'id': 155, 'code': 'US', 'name': 'United States'}"
343,6.38,6.71,2.29,3.92,93.4,114.36,2,16.26,74,2.46,Athens Supersite,39.308,-82.1183,"{'id': 155, 'code': 'US', 'name': 'United States'}"
344,8.57,19.94,0.73,0.23,113.06,92.3,3,24.84,43,1.1,Las Vegas-Paradise,36.163962,-115.11393,"{'id': 155, 'code': 'US', 'name': 'United States'}"
345,1.64,7.24,0.13,0.15,28.4,92.59,1,31.16,70,3.22,San Juan-Caguas-Guaynabo,18.428388,-66.141657,"{'id': 211, 'code': 'PR', 'name': 'Puerto Rico'}"
346,28.82,34.06,16.03,0.84,7.4,610.87,3,30.15,73,2.55,"MD University, Rohtak - HSPCB",28.876028,76.619464,"{'id': 9, 'code': 'IN', 'name': 'India'}"
348,2.55,2.84,2.56,0.3,36.1,152.05,1,13.35,83,1.04,DISTRITO FEDERAL,19.3573,-99.26279999999998,"{'id': 157, 'code': 'MX', 'name': 'Mexico'}"
349,5.57,8.68,3.32,0.25,74.69,110.7,2,18.79,75,1.0,Asheville,35.5,-82.6,"{'id': 155, 'code': 'US', 'name': 'United States'}"
350,3.97,4.15,0.23,0.06,94.73,69.43,2,7.99,75,3.0,SUBLETTE,42.7914,-110.0547,"{'id': 155, 'code': 'US', 'name': 'United States'}"
351,8.34,9.57,4.09,0.19,43.0,229.65,1,9.71,82,0.92,Machalí,-34.261909,-70.463219,"{'id': 3, 'code': 'CL', 'name': 'Chile'}"
352,2.62,2.75,1.37,0.07,66.84,111.3,2,15.78,93,1.81,HENNEPIN,45.008297,-93.277041,"{'id': 155, 'code': 'US', 'name': 'United States'}"
353,2.62,2.75,1.37,0.07,66.84,111.3,2,15.78,93,1.81,Minneapolis-St. Paul-Bloomington,45.012102,-93.276699,"{'id': 155, 'code': 'US', 'name': 'United States'}"
354,20.28,21.65,15.2,1.72,9.14,483.91,2,29.02,81,3.48,"Lalbagh, DN Park",26.84578611,80.93874444,"{'id': 9, 'code': 'IN', 'name': 'India'}"
355,0.63,1.09,0.82,0.23,51.11,75.04,1,9.15,71,1.59,Sydney North-west,-33.7947222,150.9125,"{'id': 177, 'code': 'AU', 'name': 'Australia'}"
356,4.78,5.75,1.2,0.2,53.58,130.24,1,11.54,76,0.66,Hualpén,-36.803034,-73.120527,"{'id': 3, 'code': 'CL', 'name': 'Chile'}"
358,8.12,8.48,2.14,1.3,88.37,120.53,2,17.41,67,0.55,Charlottesville,38.07657,-78.50397,"{'id': 155, 'code': 'US', 'name': 'United States'}"
359,7.93,8.55,7.84,2.72,42.57,194.75,1,16.61,75,0.58,GUANAJUATO,20.67495,-101.35595,"{'id': 157, 'code': 'MX', 'name': 'Mexico'}"
360,7.68,8.43,0.47,1.23,99.56,88.09,2,18.2,61,1.28,ALBERTA,56.7522,-111.4761,"{'id': 156, 'code': 'CA', 'name': 'Canada'}"
361,2.35,2.59,4.14,0.61,63.36,114.18,2,15.83,71,2.34,ERIE,42.9981,-78.8993,"{'id': 155, 'code': 'US', 'name': 'United States'}"
362,2.64,3.56,6.83,1.54,76.41,130.5,2,17.33,70,4.27,Springfield,42.194401,-72.555603,"{'id': 155, 'code': 'US', 'name': 'United States'}"
364,9.03,29.51,0.55,1.33,83.84,69.45,2,16.07,13,13.15,Calama,-22.44283906304,-68.932546346863,"{'id': 3, 'code': 'CL', 'name': 'Chile'}"
365,2.84,4.9,0.5,0.16,52.07,109.94,1,27.07,92,1.63,Beaumont-Port Arthur,29.863952,-94.3178,"{'id': 155, 'code': 'US', 'name': 'United States'}"
366,4.56,4.8,1.11,0.84,97.69,109.62,2,22.2,92,2.62,Birmingham-Hoover,33.565278,-86.796389,"{'id': 155, 'code': 'US', 'name': 'United States'}"
373,2.13,2.81,0.29,0.06,100.54,74.51,3,17.78,57,2.36,Red Bluff,40.170917,-122.255667,"{'id': 155, 'code': 'US', 'name': 'United States'}"
374,18.21,18.83,0.86,0.17,112.43,111.86,3,13.2,90,0.41,BOUNDARY,48.995911,-116.509953,"{'id': 156, 'code': 'CA', 'name': 'Canada'}"
376,7.27,7.84,10.06,2.27,38.01,221.74,1,16.78,82,0.79,GUANAJUATO,20.565228,-101.18824,"{'id': 157, 'code': 'MX', 'name': 'Mexico'}"
377,10.68,12.81,1.35,1.35,60.45,99.48,2,12.82,65,0.6,Sur,-32.800981,-71.483371,"{'id': 3, 'code': 'CL', 'name': 'Chile'}"
378,10.09,13.11,9.08,3.51,18.11,221.73,2,29.36,69,3.45,Alandur Bus Depot,12.99711389,80.19151667,"{'id': 9, 'code': 'IN', 'name': 'India'}"
379,17.88,18.49,0.92,0.19,110.77,111.12,3,12.08,91,0.06,BOUNDARY,48.894014,-116.359419,"{'id': 155, 'code': 'US', 'name': 'United States'}"
381,3.47,4.05,10.46,1.54,72.41,154.51,2,17.36,61,3.05,ROCKLAND,41.182079,-74.028191,"{'id': 155, 'code': 'US', 'name': 'United States'}"
382,3.96,4.64,0.58,0.37,103.98,75.88,3,13.45,75,3.29,ALBERTA,53.6825,-112.8686,"{'id': 156, 'code': 'CA', 'name': 'Canada'}"
383,1.06,1.54,0.22,0.01,87.45,80.07,2,15.9,92,0.62,PHILLIPS,48.317507,-107.86247100000001,"{'id': 155, 'code': 'US', 'name': 'United States'}"
384,4.23,4.73,7.0,1.31,83.55,141.92,2,18.14,58,3.54,New York-Northern New Jersey-Long Island,40.8197,-73.9481,"{'id': 155, 'code': 'US', 'name': 'United States'}"
385,2.15,2.59,8.98,1.32,70.96,143.66,2,17.66,65,1.62,Poughkeepsie-Newburgh-Middletown,41.4994,-74.0097,"{'id': 155, 'code': 'US', 'name': 'United States'}"
386,4.9,5.52,6.31,1.4,90.85,143.37,2,17.62,59,3.88,Susan Wagner,40.5969,-74.1264,"{'id': 155, 'code': 'US', 'name': 'United States'}"
387,0.99,1.14,1.62,0.14,61.16,103.36,2,13.38,71,3.64,Nicks Lake,43.6856,-74.9864,"{'id': 155, 'code': 'US', 'name': 'United States'}"
388,3.14,3.79,1.13,0.2,55.72,117.53,1,11.93,76,1.57,Coronel,-37.100696257418,-73.155760394707,"{'id': 3, 'code': 'CL', 'name': 'Chile'}"
389,0.74,1.08,1.3,0.09,76.03,90.83,2,15.26,76,1.54,Sidney Oil Field,47.803421,-104.485619,"{'id': 155, 'code': 'US', 'name': 'United States'}"
390,1.32,1.56,0.85,0.28,92.01,71.85,2,12.18,76,4.75,ALBERTA,52.2989,-113.7942,"{'id': 156, 'code': 'CA', 'name': 'Canada'}"
391,3.49,4.41,2.44,0.96,93.24,118.27,2,17.67,72,3.75,Near Road,41.829495,-71.417457,"{'id': 155, 'code': 'US', 'name': 'United States'}"
392,4.55,4.94,1.6,0.98,105.62,120.78,3,18.03,60,2.94,New York-Northern New Jersey-Long Island,40.7356,-73.4061,"{'id': 155, 'code': 'US', 'name': 'United States'}"
393,2.08,2.36,4.89,1.09,78.98,119.39,2,16.4,70,3.93,Buffalo-Niagara Falls,43.2189,-78.4792,"{'id': 155, 'code': 'US', 'name': 'United States'}"
394,0.82,0.88,0.08,0.08,83.13,63.91,2,12.18,91,1.07,ALBERTA,53.5936,-116.39280000000001,"{'id': 156, 'code': 'CA', 'name': 'Canada'}"
395,0.88,1.02,1.51,0.12,60.52,103.36,2,13.78,72,5.0,HAMILTON,43.4556,-74.515,"{'id': 155, 'code': 'US', 'name': 'United States'}"
396,1.78,2.11,3.49,0.53,79.4,117.66,2,18.03,62,3.42,Boston - North End,42.3631,-71.0542,"{'id': 155, 'code': 'US', 'name': 'United States'}"
397,17.36,17.74,0.47,0.07,112.84,106.58,3,12.17,90,0.83,SANDERS,47.594395,-115.323746,"{'id': 155, 'code': 'US', 'name': 'United States'}"
398,0.64,1.06,1.1,0.14,39.81,74.89,1,8.83,71,2.06,Sydney South-west,-34.0416667,150.6902778,"{'id': 177, 'code': 'AU', 'name': 'Australia'}"
399,1.21,1.56,1.92,0.02,46.64,105.04,1,11.46,81,3.69,Chillán,-36.616167751711,-72.093040558483,"{'id': 3, 'code': 'CL', 'name': 'Chile'}"
400,5.76,6.14,4.89,0.69,73.14,134.04,2,15.12,86,1.68,Kenosha-Water Tower,45.296,-87.886,"{'id': 155, 'code': 'US', 'name': 'United States'}"
403,2.07,4.44,2.83,0.08,49.18,103.19,1,10.68,85,1.21,Museo Ferroviario,-38.725302444781,-72.571192550926,"{'id': 3, 'code': 'CL', 'name': 'Chile'}"
404,7.29,9.19,3.47,0.94,82.16,115.89,2,21.34,79,1.41,Chattanooga,35.14,-85.1697,"{'id': 155, 'code': 'US', 'name': 'United States'}"
405,7.29,9.19,3.47,0.94,82.16,115.89,2,21.52,80,1.51,Chattanooga,35.1028,-85.1622,"{'id': 155, 'code': 'US', 'name': 'United States'}"
406,2.95,7.17,1.37,0.55,63.79,106.35,2,18.22,75,8.2,Oldbury,52.50243600000001,-2.003497,"{'id': 79, 'code': 'GB', 'name': 'United Kingdom'}"
407,1.87,3.44,5.79,4.06,17.08,122.58,1,24.9,87,3.4,"Zoo Park, Hyderabad - TSPCB",17.349694,78.451437,"{'id': 9, 'code': 'IN', 'name': 'India'}"
408,0.5,0.52,3.37,0.08,42.81,110.24,1,13.47,78,4.53,Stukely,45.3656,-72.2656,"{'id': 156, 'code': 'CA', 'name': 'Canada'}"
409,4.58,4.89,0.32,0.08,92.97,80.49,2,15.45,70,2.77,Esther,51.6667,-110.2,"{'id': 156, 'code': 'CA', 'name': 'Canada'}"
410,4.24,18.05,0.17,0.03,73.16,80.06,2,27.48,47,1.2,Phoenix-Mesa-Scottsdale,33.483799,-112.14260099999998,"{'id': 155, 'code': 'US', 'name': 'United States'}"
412,2.53,3.4,2.29,0.68,18.43,106.29,1,25.65,74,5.89,"Peenya, Bengaluru - KSPCB",13.0339,77.51321111,"{'id': 9, 'code': 'IN', 'name': 'India'}"
413,7.93,8.55,7.84,2.72,42.57,194.75,1,16.51,76,0.62,GUANAJUATO,20.657939,-101.34915,"{'id': 157, 'code': 'MX', 'name': 'Mexico'}"
414,1.75,3.35,2.25,0.91,57.06,105.12,1,19.91,57,7.43,Stockton-on-Tees,54.516667000000005,-1.358547,"{'id': 79, 'code': 'GB', 'name': 'United Kingdom'}"
415,3.31,3.59,0.23,0.1,94.41,80.46,2,14.44,89,0.76,GARFIELD,39.531799,-107.782303,"{'id': 155, 'code': 'US', 'name': 'United States'}"
416,1.56,3.26,0.81,0.76,49.65,93.59,1,28.89,82,4.13,Kingsville,27.4269,-97.2986,"{'id': 155, 'code': 'US', 'name': 'United States'}"
417,0.57,1.02,0.95,0.3,50.8,76.56,1,9.65,69,3.73,Sydney East,-33.8658333,151.1625,"{'id': 177, 'code': 'AU', 'name': 'Australia'}"
418,0.64,0.94,0.46,0.12,15.69,110.58,1,29.25,64,2.07,Department of Disease Control,13.853457,100.527132,"{'id': 111, 'code': 'TH', 'name': 'Thailand'}"
420,5.89,6.14,0.99,0.49,65.93,126.99,2,20.3,62,3.17,Vijećnica,43.859,18.435,"{'id': 132, 'code': 'BA', 'name': 'Bosnia and Herzegovina'}"
421,6.21,6.46,1.06,0.44,66.11,129.96,2,20.91,60,3.18,Otoka,43.848,18.364,"{'id': 132, 'code': 'BA', 'name': 'Bosnia and Herzegovina'}"
422,7.6,7.91,1.56,0.19,46.59,139.87,1,19.54,89,2.21,Tetovo,44.29,17.895,"{'id': 132, 'code': 'BA', 'name': 'Bosnia and Herzegovina'}"
423,5.21,5.4,0.75,0.5,85.35,128.56,2,18.3,81,3.99,Ivan Sedlo,43.715,18.036,"{'id': 132, 'code': 'BA', 'name': 'Bosnia and Herzegovina'}"
424,5.5,5.7,2.37,1.26,85.25,118.66,2,17.29,79,1.39,Chicago-Naperville-Joliet,41.7547,-87.7136,"{'id': 155, 'code': 'US', 'name': 'United States'}"
425,0.92,1.34,1.8,0.36,41.01,100.27,1,17.15,79,5.29,Strath Vaich,57.734456,-4.776583,"{'id': 79, 'code': 'GB', 'name': 'United Kingdom'}"
426,9.77,11.06,2.3,0.86,98.31,117.85,2,20.39,75,2.99,Durham,35.889402,-78.8747,"{'id': 155, 'code': 'US', 'name': 'United States'}"
427,1.64,1.72,0.27,0.19,69.69,73.61,2,28.47,69,1.35,Juárez,25.646111111111,-100.09555555556,"{'id': 157, 'code': 'MX', 'name': 'Mexico'}"
428,1.34,1.82,0.51,0.13,68.5,83.69,2,12.11,92,0.5,Corvallis - Circle B,44.5884,-123.2673,"{'id': 155, 'code': 'US', 'name': 'United States'}"
429,2.29,2.77,0.92,0.33,87.3,103.92,2,19.69,52,1.47,PRINCE EDWARD ISLAND,46.3864,-62.5828,"{'id': 156, 'code': 'CA', 'name': 'Canada'}"
430,0.98,1.08,3.6,0.69,61.34,119.79,2,16.91,92,1.37,Penobscot Nation,44.952,-68.6477,"{'id': 155, 'code': 'US', 'name': 'United States'}"
431,25.94,29.9,15.04,0.99,9.96,616.91,3,30.93,69,3.7,"IHBAS, Delhi - CPCB",28.6821,77.305,"{'id': 9, 'code': 'IN', 'name': 'India'}"
432,1.74,3.64,8.19,4.17,42.5,110.68,1,9.67,62,2.1,Lower Hunter,-32.7983333,151.66,"{'id': 177, 'code': 'AU', 'name': 'Australia'}"
433,7.17,7.48,0.26,0.04,96.93,77.88,2,10.37,80,1.82,Polson-MT,47.6925,-114.0122,"{'id': 155, 'code': 'US', 'name': 'United States'}"
434,5.18,5.51,1.08,0.83,99.52,100.05,2,21.0,69,1.35,DE KALB,36.0388,-85.7331,"{'id': 155, 'code': 'US', 'name': 'United States'}"
435,1.09,1.46,0.25,0.14,80.68,79.95,2,15.55,86,1.39,Birney,45.366151,-106.48982,"{'id': 155, 'code': 'US', 'name': 'United States'}"
436,5.58,5.77,1.25,0.57,79.56,107.53,2,14.52,77,1.56,TUCKER,39.0905,-79.6617,"{'id': 155, 'code': 'US', 'name': 'United States'}"
437,0.5,0.5,0.96,0.14,52.0,105.55,1,12.73,83,5.43,Varennes 1,45.7228,-73.3764,"{'id': 156, 'code': 'CA', 'name': 'Canada'}"
438,6.91,7.5,2.93,1.66,93.0,132.98,2,18.29,60,4.71,Cambridge,38.445,-76.1114,"{'id': 155, 'code': 'US', 'name': 'United States'}"
439,0.5,0.6,2.57,0.21,55.75,117.87,1,8.69,99,1.56,QUEBEC,46.035,-74.4819,"{'id': 156, 'code': 'CA', 'name': 'Canada'}"
440,3.85,15.53,0.2,0.04,70.11,79.43,2,26.58,49,1.24,Phoenix-Mesa-Scottsdale,33.5455,-111.6093,"{'id': 155, 'code': 'US', 'name': 'United States'}"
441,0.5,0.51,1.03,0.12,52.11,105.89,1,12.79,89,4.92,Saint-Jean-Baptiste,45.6481,-73.4997,"{'id': 156, 'code': 'CA', 'name': 'Canada'}"
442,4.24,18.05,0.17,0.03,73.16,80.06,2,27.13,46,0.48,Phoenix-Mesa-Scottsdale,33.560299,-112.066299,"{'id': 155, 'code': 'US', 'name': 'United States'}"
444,5.45,5.81,1.82,0.68,91.1,120.05,2,15.82,77,2.65,Wabash,40.816,-85.6611,"{'id': 155, 'code': 'US', 'name': 'United States'}"
445,4.07,16.78,0.18,0.05,69.08,80.38,2,27.38,48,0.98,Diablo,33.3961,-111.968,"{'id': 155, 'code': 'US', 'name': 'United States'}"
447,0.5,0.51,1.44,0.04,42.66,103.4,1,12.04,92,2.96,QUEBEC,45.8156,-70.8597,"{'id': 156, 'code': 'CA', 'name': 'Canada'}"
448,1.78,2.11,3.49,0.53,79.4,117.66,2,17.59,70,3.39,Boston-Cambridge-Quincy,42.329399,-71.082497,"{'id': 155, 'code': 'US', 'name': 'United States'}"
449,1.16,1.32,4.56,0.45,70.13,119.78,2,17.37,74,3.14,Boston-Cambridge-Quincy,42.7708,-71.1028,"{'id': 155, 'code': 'US', 'name': 'United States'}"
450,0.73,0.73,0.23,0.01,46.39,101.38,1,13.22,86,0.65,QUEBEC,48.8183,-72.7428,"{'id': 156, 'code': 'CA', 'name': 'Canada'}"
452,1.78,2.11,3.49,0.53,79.4,117.66,2,17.45,70,3.5,SUFFOLK,42.325197,-71.056056,"{'id': 155, 'code': 'US', 'name': 'United States'}"
453,0.5,0.5,0.59,0.06,56.19,101.05,1,13.09,91,4.5,QUEBEC,45.5231,-73.4939,"{'id': 156, 'code': 'CA', 'name': 'Canada'}"
454,0.73,0.88,1.44,0.11,61.38,102.71,2,13.63,70,5.06,Huntington Wildlife,43.97,-74.22,"{'id': 155, 'code': 'US', 'name': 'United States'}"
455,4.69,4.94,0.25,0.03,91.95,69.56,2,11.8,92,0.95,Bozeman,45.68377,-111.05632,"{'id': 155, 'code': 'US', 'name': 'United States'}"
456,13.42,13.5,0.11,0.04,88.83,115.79,2,14.92,52,2.41,ALBERTA,55.1964,-119.3967,"{'id': 156, 'code': 'CA', 'name': 'Canada'}"
457,6.49,6.72,1.74,1.21,88.82,109.71,2,16.44,75,2.74,MORGAN,37.9214,-83.0662,"{'id': 155, 'code': 'US', 'name': 'United States'}"
458,3.01,3.73,3.84,0.9,83.71,122.92,2,17.18,72,4.08,Worcester,42.0997,-71.62,"{'id': 155, 'code': 'US', 'name': 'United States'}"
459,3.75,4.01,0.18,0.03,93.57,67.69,2,12.28,94,1.04,Helena,46.6588,-112.0131,"{'id': 155, 'code': 'US', 'name': 'United States'}"
460,6.32,6.82,5.23,0.82,102.21,142.66,3,13.44,76,0.48,Cranberry,36.1058,-82.0454,"{'id': 155, 'code': 'US', 'name': 'United States'}"
461,3.49,4.41,2.44,0.96,93.24,118.27,2,18.11,70,3.75,Providence,41.8081,-71.415,"{'id': 155, 'code': 'US', 'name': 'United States'}"
462,0.84,0.89,0.12,0.12,87.87,63.65,2,12.4,78,1.88,Violet Grove,53.1422,-115.1381,"{'id': 156, 'code': 'CA', 'name': 'Canada'}"
463,0.5,0.51,1.03,0.12,52.11,105.89,1,13.09,90,4.75,Rivi�re-des-Prairies,45.6569,-73.575,"{'id': 156, 'code': 'CA', 'name': 'Canada'}"
464,3.78,14.9,0.28,0.05,74.57,80.26,2,26.22,48,2.63,Rio Verde Sheriff Su,33.7188,-111.6718,"{'id': 155, 'code': 'US', 'name': 'United States'}"
465,0.54,0.99,0.43,0.18,80.78,87.92,2,16.21,82,1.89,MT1,45.44029,-105.37028,"{'id': 155, 'code': 'US', 'name': 'United States'}"
466,2.19,2.71,2.52,0.6,85.89,114.72,2,17.93,73,3.51,PLYMOUTH,42.065119,-71.012686,"{'id': 155, 'code': 'US', 'name': 'United States'}"
467,6.59,7.3,0.54,0.67,113.83,104.49,3,23.4,78,2.57,Morehead City,34.8848,-76.6203,"{'id': 155, 'code': 'US', 'name': 'United States'}"
468,0.5,0.5,1.53,0.02,49.2,101.87,1,13.09,89,3.06,QUEBEC,45.3733,-71.2514,"{'id': 156, 'code': 'CA', 'name': 'Canada'}"
469,12.93,13.21,0.2,0.04,98.85,88.82,2,11.93,86,1.28,RAVALLI,46.243621,-114.158889,"{'id': 155, 'code': 'US', 'name': 'United States'}"
470,0.5,0.5,0.59,0.06,56.19,101.05,1,13.59,89,4.85,QUEBEC,45.4431,-73.4686,"{'id': 156, 'code': 'CA', 'name': 'Canada'}"
471,3.51,4.77,6.61,2.01,87.01,130.59,2,18.17,69,3.43,"Brown University, Ro",41.826099,-72.595001,"{'id': 155, 'code': 'US', 'name': 'United States'}"
472,0.92,1.22,6.1,0.53,65.31,128.43,2,17.93,75,4.61,Boston-Cambridge-Quincy,43.075371,-70.748017,"{'id': 155, 'code': 'US', 'name': 'United States'}"
474,1.56,1.75,1.33,0.37,70.76,105.32,2,14.66,72,3.62,Ithaca,42.4006,-76.6538,"{'id': 155, 'code': 'US', 'name': 'United States'}"
475,6.3,28.07,0.18,0.07,78.64,84.14,2,28.24,45,1.07,Phoenix-Mesa-Scottsdale,33.37,-112.6207,"{'id': 155, 'code': 'US', 'name': 'United States'}"
476,0.61,0.71,0.62,0.15,56.9,95.38,1,13.97,62,3.26,QUEBEC,48.2344,-78.9833,"{'id': 156, 'code': 'CA', 'name': 'Canada'}"
477,0.84,1.13,3.67,0.24,33.16,123.92,1,12.38,92,2.39,QUEBEC,46.77417,-71.36972,"{'id': 156, 'code': 'CA', 'name': 'Canada'}"
478,0.5,0.5,2.46,0.06,41.53,108.05,1,14.17,84,3.54,Sherbrooke - Parc Ca,45.4125,-71.8744,"{'id': 156, 'code': 'CA', 'name': 'Canada'}"
479,1.12,1.27,4.62,0.43,67.87,118.54,2,17.86,69,3.09,Boston-Cambridge-Quincy,42.6267,-71.3622,"{'id': 155, 'code': 'US', 'name': 'United States'}"
480,1.38,1.53,4.04,0.46,76.16,119.89,2,17.39,69,3.46,Boston-Cambridge-Quincy,42.474701,-70.971901,"{'id': 155, 'code': 'US', 'name': 'United States'}"
481,0.5,0.59,1.93,0.2,49.39,111.24,1,10.34,91,3.63,QUEBEC,45.6222,-76.0178,"{'id': 156, 'code': 'CA', 'name': 'Canada'}"
482,0.53,0.71,2.56,0.4,36.37,116.57,1,12.88,86,3.62,QUEBEC,46.0419,-72.66,"{'id': 156, 'code': 'CA', 'name': 'Canada'}"
483,4.52,18.77,0.24,0.03,79.29,81.79,2,27.29,45,2.43,Phoenix-Mesa-Scottsdale,33.686741,-112.294167,"{'id': 155, 'code': 'US', 'name': 'United States'}"
484,7.97,8.26,0.54,0.04,95.01,79.89,2,9.79,90,0.93,SILVER BOW,46.002399,-112.500893,"{'id': 155, 'code': 'US', 'name': 'United States'}"
485,1.16,1.75,6.41,0.93,27.22,149.82,1,13.04,84,2.4,QUEBEC,46.35,-72.4333,"{'id': 156, 'code': 'CA', 'name': 'Canada'}"
486,6.15,6.51,0.32,0.04,98.64,77.99,2,11.56,89,0.35,FLATHEAD,48.363694,-114.189272,"{'id': 155, 'code': 'US', 'name': 'United States'}"
487,1.6,2.45,5.36,0.54,25.95,141.95,1,12.1,94,1.33,QUEBEC,46.6822,-71.9678,"{'id': 156, 'code': 'CA', 'name': 'Canada'}"
488,4.07,5.18,4.5,1.51,91.2,127.51,2,16.95,71,4.06,Willimantic,41.8402,-72.01,"{'id': 155, 'code': 'US', 'name': 'United States'}"
489,4.97,5.26,2.0,0.29,74.23,120.2,2,13.73,94,0.33,TAYLOR,45.2066,-90.5969,"{'id': 155, 'code': 'US', 'name': 'United States'}"
490,7.44,8.18,0.46,1.28,98.94,86.65,2,19.17,60,1.22,ALBERTA,56.7328,-111.39,"{'id': 156, 'code': 'CA', 'name': 'Canada'}"
491,1.04,1.31,3.6,0.4,34.46,126.7,1,12.94,90,2.74,QUEBEC,46.8214,-71.2208,"{'id': 156, 'code': 'CA', 'name': 'Canada'}"
492,0.5,0.5,0.6,0.06,56.24,100.99,1,12.91,94,4.6,A�roport de Montr�al,45.4667,-73.75,"{'id': 156, 'code': 'CA', 'name': 'Canada'}"
494,6.85,7.21,0.66,0.04,87.29,87.04,2,10.41,91,0.58,MISSOULA,47.17563,-113.476182,"{'id': 155, 'code': 'US', 'name': 'United States'}"
495,2.15,2.52,0.58,0.29,100.05,71.06,3,14.13,74,3.17,Edmonton South,53.5028,-113.6111,"{'id': 156, 'code': 'CA', 'name': 'Canada'}"
496,1.46,1.55,0.39,0.21,105.53,78.28,3,15.55,68,2.89,ALBERTA,54.4138,-110.2331,"{'id': 156, 'code': 'CA', 'name': 'Canada'}"
497,0.66,0.7,2.42,0.38,52.28,109.0,1,16.56,91,0.85,Howland Ameriflux,45.203963,-68.740041,"{'id': 155, 'code': 'US', 'name': 'United States'}"
498,0.5,0.63,3.62,0.19,41.69,121.99,1,11.23,90,4.59,QUEBEC,45.4369,-75.7261,"{'id': 156, 'code': 'CA', 'name': 'Canada'}"
499,5.05,6.1,2.26,1.22,101.66,122.23,3,17.72,69,3.61,Providence-New Bedford-Fall River,41.615,-71.7197,"{'id': 155, 'code': 'US', 'name': 'United States'}"
500,10.68,11.01,0.24,0.04,96.04,84.71,2,12.07,94,0.65,MISSOULA,47.012907,-114.224273,"{'id': 155, 'code': 'US', 'name': 'United States'}"
501,6.37,6.83,1.11,1.24,93.27,106.92,2,20.27,68,2.28,St. Louis,38.869,-89.6228,"{'id': 155, 'code': 'US', 'name': 'United States'}"
502,0.88,1.04,2.42,0.44,36.6,120.7,1,13.14,88,2.88,François,47.0147,-70.8644,"{'id': 156, 'code': 'CA', 'name': 'Canada'}"
503,3.78,14.9,0.28,0.05,74.57,80.26,2,26.48,47,1.65,Phoenix-Mesa-Scottsdale,33.611,-111.7253,"{'id': 155, 'code': 'US', 'name': 'United States'}"
504,3.41,4.04,0.67,0.39,105.81,75.13,3,14.33,73,2.85,ALBERTA,53.6989,-113.2233,"{'id': 156, 'code': 'CA', 'name': 'Canada'}"
505,6.75,7.5,0.36,1.45,102.21,82.48,3,18.29,63,1.97,ALBERTA,57.1889,-111.6406,"{'id': 156, 'code': 'CA', 'name': 'Canada'}"
506,0.5,0.68,2.24,0.12,34.07,108.39,1,12.34,91,2.98,QUEBEC,45.9075,-71.9492,"{'id': 156, 'code': 'CA', 'name': 'Canada'}"
507,2.09,2.56,4.73,0.7,74.19,123.73,2,16.85,70,4.02,Worcester,42.263901,-71.79470100000002,"{'id': 155, 'code': 'US', 'name': 'United States'}"
508,2.18,2.68,5.14,0.77,72.53,126.08,2,16.2,70,4.07,Worcester,42.2742,-71.8758,"{'id': 155, 'code': 'US', 'name': 'United States'}"
509,6.57,7.2,0.26,1.8,98.5,77.27,2,17.62,68,2.2,ALBERTA,58.7083,-111.1764,"{'id': 156, 'code': 'CA', 'name': 'Canada'}"
510,1.67,2.53,0.8,0.23,72.5,101.22,2,20.48,93,2.87,Amarillo,34.8803,-101.6649,"{'id': 155, 'code': 'US', 'name': 'United States'}"
511,6.97,7.36,0.39,0.04,97.39,80.44,2,11.58,89,0.39,White Fish Dead End,48.400523,-114.335973,"{'id': 155, 'code': 'US', 'name': 'United States'}"
512,3.39,3.68,0.2,0.03,92.72,68.96,2,10.89,93,1.32,LEWIS AND CLARK,46.8505,-111.987164,"{'id': 155, 'code': 'US', 'name': 'United States'}"
513,4.24,18.05,0.17,0.03,73.16,80.06,2,27.79,46,1.15,Greenwood,33.4609,-112.1175,"{'id': 155, 'code': 'US', 'name': 'United States'}"
514,4.24,18.05,0.17,0.03,73.16,80.06,2,27.88,46,1.17,Phoenix-Mesa-Scottsdale,33.4033,-112.0731,"{'id': 155, 'code': 'US', 'name': 'United States'}"
515,4.04,16.79,0.18,0.04,71.63,79.74,2,27.46,47,0.42,Phoenix-Mesa-Scottsdale,33.4797,-111.9172,"{'id': 155, 'code': 'US', 'name': 'United States'}"
516,4.87,5.21,1.33,0.32,72.86,110.08,2,22.22,87,2.37,Atlanta-Sandy Springs-Marietta,33.1787,-84.4052,"{'id': 155, 'code': 'US', 'name': 'United States'}"
517,4.07,16.78,0.18,0.05,69.08,80.38,2,27.7,49,1.13,Phoenix-Mesa-Scottsdale,33.299,-111.8843,"{'id': 155, 'code': 'US', 'name': 'United States'}"
518,4.24,18.05,0.17,0.03,73.16,80.06,2,27.95,46,1.27,Phoenix-Mesa-Scottsdale,33.406399,-112.144302,"{'id': 155, 'code': 'US', 'name': 'United States'}"
519,0.58,0.64,1.65,0.21,37.54,110.16,1,10.85,90,2.61,QUEBEC,46.8508,-70.4528,"{'id': 156, 'code': 'CA', 'name': 'Canada'}"
520,1.28,1.5,0.17,0.02,90.91,70.71,2,15.62,87,1.05,Billings St. Luke's,45.782181,-108.511528,"{'id': 155, 'code': 'US', 'name': 'United States'}"
521,1.78,2.11,3.49,0.53,79.4,117.66,2,17.58,70,3.27,Boston-Cambridge-Quincy,42.3489,-71.097702,"{'id': 155, 'code': 'US', 'name': 'United States'}"
522,2.64,3.56,6.83,1.54,76.41,130.5,2,18.09,68,4.09,Springfield,42.1086,-72.5911,"{'id': 155, 'code': 'US', 'name': 'United States'}"
524,0.8,1.0,5.82,0.46,55.91,122.48,1,17.61,68,4.22,FRANKLIN,42.605816,-72.596689,"{'id': 155, 'code': 'US', 'name': 'United States'}"
525,0.75,0.93,3.34,0.25,60.65,115.08,2,15.76,70,4.83,PITTSFIELD,42.4478,-73.2547,"{'id': 155, 'code': 'US', 'name': 'United States'}"
526,4.04,16.79,0.18,0.04,71.63,79.74,2,27.67,48,0.71,Phoenix-Mesa-Scottsdale,33.4124,-111.9347,"{'id': 155, 'code': 'US', 'name': 'United States'}"
527,0.5,0.51,1.03,0.12,52.11,105.89,1,13.04,90,4.59,Chenier,45.60175999999999,-73.541992,"{'id': 156, 'code': 'CA', 'name': 'Canada'}"
528,0.5,0.54,2.11,0.06,35.18,110.52,1,10.66,99,3.9,QUEBEC,46.7686,-75.4319,"{'id': 156, 'code': 'CA', 'name': 'Canada'}"
529,0.5,0.5,0.59,0.06,56.19,101.05,1,13.04,91,4.33,Molson,45.54271,-73.57176,"{'id': 156, 'code': 'CA', 'name': 'Canada'}"
530,1.91,2.46,6.42,0.97,68.08,128.97,2,16.78,69,3.88,Springfield,42.298302,-72.33439599999998,"{'id': 155, 'code': 'US', 'name': 'United States'}"
531,1.06,1.66,7.02,1.77,28.13,149.78,1,12.21,87,1.08,QUEBEC,46.4425,-72.8928,"{'id': 156, 'code': 'CA', 'name': 'Canada'}"
532,6.43,6.83,1.31,1.17,97.02,109.31,2,17.78,70,3.52,WASHINGTON,37.7046,-85.0485,"{'id': 155, 'code': 'US', 'name': 'United States'}"
533,1.78,2.11,3.49,0.53,79.4,117.66,2,17.41,71,3.44,Boston-Cambridge-Quincy,42.2117,-71.114403,"{'id': 155, 'code': 'US', 'name': 'United States'}"
534,10.95,11.25,0.21,0.04,96.34,84.6,2,12.38,92,1.12,MISSOULA,46.842297,-114.020549,"{'id': 155, 'code': 'US', 'name': 'United States'}"
535,2.54,2.86,0.27,0.03,87.7,71.38,2,12.14,94,1.11,CASCADE,47.494318,-111.303317,"{'id': 155, 'code': 'US', 'name': 'United States'}"
536,3.71,14.26,0.36,0.05,79.09,81.11,2,20.85,48,2.39,Phoenix-Mesa-Scottsdale,33.9828,-111.7987,"{'id': 155, 'code': 'US', 'name': 'United States'}"
537,2.29,2.48,0.22,0.03,90.41,70.64,2,11.95,86,1.64,ALBERTA,49.7164,-112.8006,"{'id': 156, 'code': 'CA', 'name': 'Canada'}"
538,1.34,1.64,0.52,0.32,88.0,103.75,2,17.96,75,7.33,Barnstable Town,41.9756,-70.0239,"{'id': 155, 'code': 'US', 'name': 'United States'}"
539,3.29,3.48,0.24,0.17,92.89,65.34,2,8.02,78,1.61,SUBLETTE,42.9288,-109.788,"{'id': 155, 'code': 'US', 'name': 'United States'}"
540,4.32,6.15,5.32,1.56,79.04,139.5,2,17.63,60,3.1,Trenton-Ewing,40.3125,-74.8729,"{'id': 155, 'code': 'US', 'name': 'United States'}"
541,4.04,16.79,0.18,0.04,71.63,79.74,2,27.59,48,0.76,Phoenix-Mesa-Scottsdale,33.4105,-111.8651,"{'id': 155, 'code': 'US', 'name': 'United States'}"
542,1.73,2.04,0.3,0.04,86.01,70.36,2,12.16,89,1.25,FERGUS,47.048537,-109.455315,"{'id': 155, 'code': 'US', 'name': 'United States'}"
543,4.24,18.05,0.17,0.03,73.16,80.06,2,27.79,46,1.0,Phoenix-Mesa-Scottsdale,33.4579,-112.046,"{'id': 155, 'code': 'US', 'name': 'United States'}"
544,2.68,3.09,0.38,1.87,88.36,72.94,2,3.93,82,1.48,Laramie,41.3642,-106.2399,"{'id': 155, 'code': 'US', 'name': 'United States'}"
545,6.74,7.06,1.77,2.38,89.61,112.85,2,17.07,80,2.04,Cedar Creek,38.8795,-80.8477,"{'id': 155, 'code': 'US', 'name': 'United States'}"
546,2.86,3.95,0.28,0.09,96.45,77.2,2,14.12,73,2.23,ALBERTA,50.0492,-110.6814,"{'id': 156, 'code': 'CA', 'name': 'Canada'}"
547,4.07,16.36,0.36,0.03,81.31,81.83,2,25.3,47,2.46,Phoenix-Mesa-Scottsdale,33.8217,-112.0174,"{'id': 155, 'code': 'US', 'name': 'United States'}"
548,6.09,8.23,1.25,0.71,118.2,90.35,3,15.27,44,2.68,Truckee-Grass Valley,39.234402,-121.055603,"{'id': 155, 'code': 'US', 'name': 'United States'}"
549,3.16,3.72,0.81,0.35,104.87,76.35,3,14.59,71,3.42,ALBERTA,53.5472,-113.3681,"{'id': 156, 'code': 'CA', 'name': 'Canada'}"
550,4.24,18.05,0.17,0.03,73.16,80.06,2,27.55,47,1.25,Phoenix-Mesa-Scottsdale,33.5694,-112.1915,"{'id': 155, 'code': 'US', 'name': 'United States'}"
551,7.33,7.69,0.34,0.04,98.59,80.62,2,11.57,89,0.13,Kalispell Flathead E,48.202499,-114.305557,"{'id': 155, 'code': 'US', 'name': 'United States'}"
552,1.52,2.1,4.77,0.58,30.6,135.72,1,11.97,93,1.64,Catherine,46.8369,-71.6228,"{'id': 156, 'code': 'CA', 'name': 'Canada'}"
553,0.87,1.11,2.38,0.35,26.02,104.5,1,11.96,83,1.05,Lac-Édouard,47.6472,-72.2914,"{'id': 156, 'code': 'CA', 'name': 'Canada'}"
554,0.76,0.8,0.11,0.25,89.04,64.33,2,12.89,82,0.7,ALBERTA,53.6072,-115.8769,"{'id': 156, 'code': 'CA', 'name': 'Canada'}"
555,1.19,1.35,0.19,0.05,84.51,65.58,2,11.68,74,3.52,ALBERTA,51.95,-114.7,"{'id': 156, 'code': 'CA', 'name': 'Canada'}"
556,3.79,4.96,10.24,4.01,42.4,139.74,1,26.28,93,1.41,POLK,30.6681,-94.6739,"{'id': 155, 'code': 'US', 'name': 'United States'}"
557,3.06,3.92,1.94,0.81,93.21,114.44,2,18.04,71,3.7,Providence-New Bedford-Fall River,41.840302,-71.361702,"{'id': 155, 'code': 'US', 'name': 'United States'}"
558,2.82,3.13,3.84,1.82,67.72,117.9,2,13.01,73,1.97,St. Marys,41.598,-78.7674,"{'id': 155, 'code': 'US', 'name': 'United States'}"
559,3.19,4.02,1.28,0.73,95.89,112.29,2,18.29,71,3.7,Providence-New Bedford-Fall River,41.6833,-71.169701,"{'id': 155, 'code': 'US', 'name': 'United States'}"
560,15.36,15.81,0.5,0.08,107.27,100.43,3,13.0,91,0.55,LINCOLN,48.391672,-115.55228,"{'id': 155, 'code': 'US', 'name': 'United States'}"
561,4.52,18.77,0.24,0.03,79.29,81.79,2,27.45,44,1.81,Phoenix-Mesa-Scottsdale,33.6369,-112.3394,"{'id': 155, 'code': 'US', 'name': 'United States'}"
562,2.66,3.12,0.7,0.32,102.46,73.7,3,14.16,72,3.11,Edmonton Central,53.5453,-113.4992,"{'id': 156, 'code': 'CA', 'name': 'Canada'}"
563,2.64,2.92,0.2,0.09,74.59,73.02,2,6.45,92,1.56,GUNNISON,38.9564,-106.9858,"{'id': 155, 'code': 'US', 'name': 'United States'}"
564,4.24,18.05,0.17,0.03,73.16,80.06,2,27.93,46,1.25,Phoenix-Mesa-Scottsdale,33.4265,-112.11809999999998,"{'id': 155, 'code': 'US', 'name': 'United States'}"
565,9.86,10.56,4.84,1.1,79.87,139.29,2,18.66,64,2.89,PRINCE EDWARD,37.17,-78.31,"{'id': 155, 'code': 'US', 'name': 'United States'}"
566,2.34,3.21,0.63,0.47,93.0,107.95,2,18.21,74,5.74,Wampanoag Laboratory,41.33047,-70.78584,"{'id': 155, 'code': 'US', 'name': 'United States'}"
567,3.97,16.05,0.27,0.04,75.88,80.61,2,24.92,47,1.84,Phoenix-Mesa-Scottsdale,33.712299,-111.852699,"{'id': 155, 'code': 'US', 'name': 'United States'}"
568,5.14,5.42,2.43,3.13,86.35,113.13,2,15.73,71,1.89,NOBLE,39.9428,-81.3373,"{'id': 155, 'code': 'US', 'name': 'United States'}"
569,6.75,7.5,0.36,1.45,102.21,82.48,3,18.42,62,1.87,ALBERTA,57.149,-111.642,"{'id': 156, 'code': 'CA', 'name': 'Canada'}"
570,3.85,15.53,0.2,0.04,70.11,79.43,2,27.26,49,1.1,Phoenix-Mesa-Scottsdale,33.4522,-111.7331,"{'id': 155, 'code': 'US', 'name': 'United States'}"
571,1.58,1.76,0.13,0.05,86.39,64.81,2,12.51,70,1.96,ALBERTA,51.0814,-114.1403,"{'id': 156, 'code': 'CA', 'name': 'Canada'}"
572,0.5,0.5,0.6,0.06,56.24,100.99,1,13.26,92,4.26,Duncan,45.5025,-73.6661,"{'id': 156, 'code': 'CA', 'name': 'Canada'}"
573,1.94,2.07,0.46,0.13,76.36,70.71,2,13.13,89,0.58,Golden Hospital,51.2958,-116.9717,"{'id': 156, 'code': 'CA', 'name': 'Canada'}"
574,2.55,3.24,1.0,0.58,93.69,109.61,2,18.12,73,4.24,BRISTOL,41.6454,-70.898,"{'id': 155, 'code': 'US', 'name': 'United States'}"
576,2.55,2.84,2.56,0.3,36.1,152.05,1,14.92,81,0.91,DISTRITO FEDERAL,19.325099999999996,-99.2041,"{'id': 157, 'code': 'MX', 'name': 'Mexico'}"
577,1.66,3.18,0.54,0.51,52.62,92.19,1,29.05,81,3.9,Corpus Christi,27.811814,-97.4657,"{'id': 155, 'code': 'US', 'name': 'United States'}"
578,1.97,2.08,0.34,0.22,68.05,77.7,2,27.68,76,1.41,Monterrey,25.756944444444,-100.36583333333,"{'id': 157, 'code': 'MX', 'name': 'Mexico'}"
579,1.97,2.08,0.34,0.22,68.05,77.7,2,27.97,77,0.95,La Pastora,25.66833,-100.24833,"{'id': 157, 'code': 'MX', 'name': 'Mexico'}"
580,2.3,2.43,0.41,0.25,66.42,81.68,2,27.19,72,1.57,Garcia,25.78343,-100.58587,"{'id': 157, 'code': 'MX', 'name': 'Mexico'}"
581,2.3,2.43,0.41,0.25,66.42,81.68,2,27.36,73,1.18,Santa Catarina,25.675,-100.45833,"{'id': 157, 'code': 'MX', 'name': 'Mexico'}"
582,1.97,2.08,0.34,0.22,68.05,77.7,2,27.94,78,1.12,San Nicolas,25.745,-100.25472,"{'id': 157, 'code': 'MX', 'name': 'Mexico'}"
583,9.48,10.83,2.57,0.78,80.43,118.49,2,21.32,72,3.85,LEGGETT,35.9889,-77.5867,"{'id': 155, 'code': 'US', 'name': 'United States'}"
584,5.61,6.19,2.79,0.26,30.72,120.44,1,19.11,84,1.63,Harmani,44.916,17.349,"{'id': 132, 'code': 'BA', 'name': 'Bosnia and Herzegovina'}"
585,17.22,17.8,0.71,0.14,111.31,112.91,3,13.66,86,1.65,Liberty Lake-E Valey,47.660568,-117.084503,"{'id': 155, 'code': 'US', 'name': 'United States'}"
586,4.05,4.33,0.19,0.01,85.13,69.26,2,10.71,63,0.63,SWEETWATER,41.750599,-109.78970300000002,"{'id': 155, 'code': 'US', 'name': 'United States'}"
588,8.94,28.98,0.45,1.67,82.66,64.68,2,17.52,2,11.04,Chiu Chiu,-22.342264,-68.650897,"{'id': 3, 'code': 'CL', 'name': 'Chile'}"
589,2.65,2.95,1.01,1.64,92.85,83.67,2,18.14,60,1.39,Regina,50.45273,-104.61602,"{'id': 156, 'code': 'CA', 'name': 'Canada'}"
590,3.17,7.5,0.05,1.81,48.32,72.17,1,14.89,56,1.15,Hilo,19.4308,-155.2578,"{'id': 155, 'code': 'US', 'name': 'United States'}"
592,0.58,0.95,1.0,0.12,38.61,75.4,1,8.53,67,2.1,Albion Park Sth,-34.5805556,150.7816667,"{'id': 177, 'code': 'AU', 'name': 'Australia'}"
593,1.62,3.36,8.31,4.85,45.41,108.0,1,9.83,63,4.77,Lower Hunter,-32.9325,151.7583333,"{'id': 177, 'code': 'AU', 'name': 'Australia'}"
594,4.55,6.94,4.19,1.01,15.72,142.42,1,25.49,75,6.0,"BTM Layout, Bengaluru - KSPCB",12.912811110000002,77.60921944,"{'id': 9, 'code': 'IN', 'name': 'India'}"
595,4.06,5.91,2.52,0.97,58.69,116.94,1,26.66,95,1.94,Beaumont-Port Arthur,30.18,-93.8731,"{'id': 155, 'code': 'US', 'name': 'United States'}"
596,1.37,1.54,1.71,0.28,64.53,107.87,2,16.91,72,4.46,Utica-Rome,43.0994,-75.225,"{'id': 155, 'code': 'US', 'name': 'United States'}"
597,3.54,13.74,0.24,0.06,61.98,80.99,2,22.85,53,0.99,GILA,33.3855,-110.867267,"{'id': 155, 'code': 'US', 'name': 'United States'}"
598,2.67,3.08,1.88,0.74,77.45,111.69,2,15.53,76,1.88,Youngstown - Laird A,41.231167,-80.801914,"{'id': 155, 'code': 'US', 'name': 'United States'}"
599,7.65,8.35,1.18,0.13,103.7,97.04,3,10.96,73,1.31,CARIBOU,42.695301,-111.593903,"{'id': 155, 'code': 'US', 'name': 'United States'}"
601,3.6,4.27,0.22,0.18,91.81,85.07,2,11.52,77,1.37,MONTEZUMA,37.1983,-108.4903,"{'id': 155, 'code': 'US', 'name': 'United States'}"
602,0.57,1.02,0.95,0.3,50.8,76.56,1,9.2,72,2.63,Sydney East,-33.8938889,151.0452778,"{'id': 177, 'code': 'AU', 'name': 'Australia'}"
603,6.32,17.56,0.43,0.65,74.19,97.41,2,23.57,46,0.92,Yuma,32.690277,-114.614441,"{'id': 155, 'code': 'US', 'name': 'United States'}"
604,3.19,12.58,0.27,0.07,57.83,80.55,1,25.48,51,0.4,GILA,33.006268,-110.786484,"{'id': 155, 'code': 'US', 'name': 'United States'}"
605,4.24,18.05,0.17,0.03,73.16,80.06,2,27.7,46,0.96,Phoenix-Mesa-Scottsdale,33.503601,-112.09500100000001,"{'id': 155, 'code': 'US', 'name': 'United States'}"
606,3.54,13.74,0.24,0.06,61.98,80.99,2,22.85,53,0.99,GILA,33.397433,-110.87445,"{'id': 155, 'code': 'US', 'name': 'United States'}"
607,3.25,13.5,0.2,0.05,54.12,80.33,1,26.34,51,0.92,PIMA,32.414342,-111.154544,"{'id': 155, 'code': 'US', 'name': 'United States'}"
608,26.88,127.43,0.7,0.79,91.8,126.37,4,27.0,45,0.23,PIMA,32.382034,-112.857452,"{'id': 155, 'code': 'US', 'name': 'United States'}"
609,2.51,5.01,0.33,0.22,59.8,86.54,1,22.6,69,0.38,Sierra Vista-Douglas,31.3492,-109.539683,"{'id': 155, 'code': 'US', 'name': 'United States'}"
610,3.64,13.44,0.31,0.08,71.18,82.04,2,25.69,52,1.35,GILA,33.654725,-111.107406,"{'id': 155, 'code': 'US', 'name': 'United States'}"
611,4.06,14.52,0.39,0.03,89.79,82.65,2,18.3,67,1.77,Prescott College,34.546667,-112.476111,"{'id': 155, 'code': 'US', 'name': 'United States'}"
612,3.45,9.51,0.68,0.06,88.96,89.12,2,13.8,80,1.7,AZ1,35.2061,-111.6528,"{'id': 155, 'code': 'US', 'name': 'United States'}"
613,3.68,13.89,0.24,0.07,66.97,81.9,2,22.87,54,0.88,Payson,33.419017,-110.829667,"{'id': 155, 'code': 'US', 'name': 'United States'}"
614,6.38,18.73,0.3,0.09,109.84,90.21,3,26.92,52,1.97,Lake Havasu City-Kingman,35.166111,-114.566111,"{'id': 155, 'code': 'US', 'name': 'United States'}"
615,3.59,13.99,0.21,0.06,64.75,80.25,2,25.89,50,1.04,Phoenix-Mesa-Scottsdale,33.289398,-111.292801,"{'id': 155, 'code': 'US', 'name': 'United States'}"
616,3.22,12.73,0.21,0.05,55.33,82.91,1,22.62,66,1.09,Nogales,31.337204,-110.936722,"{'id': 155, 'code': 'US', 'name': 'United States'}"
617,2.65,5.43,0.32,0.21,55.63,85.49,1,22.26,69,1.01,Sierra Vista-Douglas,31.3658,-109.7309,"{'id': 155, 'code': 'US', 'name': 'United States'}"
618,3.54,13.74,0.24,0.06,61.98,80.99,2,22.75,54,0.91,Miami Ridgeline,33.3992,-110.8589,"{'id': 155, 'code': 'US', 'name': 'United States'}"
619,0.52,0.73,0.27,0.09,19.31,97.38,1,29.43,78,1.28,"Bang Sao Thong, Bang Sao Thong",13.567696531322,100.78940318041,"{'id': 111, 'code': 'TH', 'name': 'Thailand'}"
620,1.77,2.23,0.23,0.61,77.83,79.17,2,14.07,70,3.12,Huasco,-28.469998068842,-71.219652562817,"{'id': 3, 'code': 'CL', 'name': 'Chile'}"
622,6.54,8.88,1.57,0.98,124.5,91.95,3,14.22,46,2.84,Sacramento--Arden-Arcade--Roseville,39.1003,-120.9528,"{'id': 155, 'code': 'US', 'name': 'United States'}"
623,1.33,1.54,2.23,0.4,65.54,108.46,2,16.22,60,4.44,Watertown-Fort Drum,44.0878,-75.9744,"{'id': 155, 'code': 'US', 'name': 'United States'}"
624,2.11,2.38,3.11,0.47,64.83,110.34,2,16.61,74,4.49,Rochester,43.1461,-77.5481,"{'id': 155, 'code': 'US', 'name': 'United States'}"
625,4.23,4.73,7.0,1.31,83.55,141.92,2,18.33,57,3.52,New York-Northern New Jersey-Long Island,40.8492,-73.9319,"{'id': 155, 'code': 'US', 'name': 'United States'}"
626,4.23,4.73,7.0,1.31,83.55,141.92,2,18.43,57,3.48,New York-Northern New Jersey-Long Island,40.816101,-73.902199,"{'id': 155, 'code': 'US', 'name': 'United States'}"
627,7.32,11.33,7.51,1.7,94.48,134.33,2,16.74,75,1.49,Sacramento--Arden-Arcade--Roseville,38.661239,-121.732683,"{'id': 155, 'code': 'US', 'name': 'United States'}"
628,4.95,5.45,5.35,1.22,89.29,137.94,2,18.45,57,3.48,New York-Northern New Jersey-Long Island,40.7269,-73.8933,"{'id': 155, 'code': 'US', 'name': 'United States'}"
629,0.76,0.89,1.54,0.1,61.99,106.15,2,17.59,71,3.04,Albany-Schenectady-Troy,42.6769,-73.7556,"{'id': 155, 'code': 'US', 'name': 'United States'}"
630,2.42,2.72,2.61,0.53,66.11,110.4,2,16.73,74,5.43,Rochester,43.2303,-77.1728,"{'id': 155, 'code': 'US', 'name': 'United States'}"
631,4.95,5.45,5.35,1.22,89.29,137.94,2,18.37,57,3.28,New York-Northern New Jersey-Long Island,40.7375,-73.8244,"{'id': 155, 'code': 'US', 'name': 'United States'}"
632,6.96,7.67,2.04,0.75,84.54,106.95,2,22.29,71,2.68,LAWRENCE,35.1158,-87.47,"{'id': 155, 'code': 'US', 'name': 'United States'}"
633,0.59,0.75,1.29,0.11,58.68,99.95,1,13.14,85,3.78,ESSEX,44.39308,-73.8589,"{'id': 155, 'code': 'US', 'name': 'United States'}"
634,3.55,3.97,6.81,1.24,83.28,137.22,2,17.82,60,2.66,New York-Northern New Jersey-Long Island,41.0522,-73.7642,"{'id': 155, 'code': 'US', 'name': 'United States'}"
635,6.38,11.84,1.59,1.07,96.09,101.31,2,15.93,79,1.83,Vallejo-Fairfield,38.356556,-121.949853,"{'id': 155, 'code': 'US', 'name': 'United States'}"
636,0.76,0.89,1.12,0.07,53.82,100.21,1,17.4,70,2.67,Albany-Schenectady-Troy,43.0122,-73.6492,"{'id': 155, 'code': 'US', 'name': 'United States'}"
637,6.77,8.31,3.1,1.21,84.56,112.73,2,21.62,75,1.31,Athens,35.4511,-84.5992,"{'id': 155, 'code': 'US', 'name': 'United States'}"
638,19.18,19.87,0.9,0.39,115.44,117.65,3,12.84,85,1.24,SHOSHONE,47.536712,-116.236867,"{'id': 155, 'code': 'US', 'name': 'United States'}"
639,4.77,4.99,1.01,0.94,102.03,98.65,3,21.84,60,2.72,Nashville-Davidson--Murfreesboro,36.2975,-86.6525,"{'id': 155, 'code': 'US', 'name': 'United States'}"
640,4.77,4.98,0.9,1.22,101.59,100.0,3,21.9,62,3.34,Clarksville,36.5144,-87.3278,"{'id': 155, 'code': 'US', 'name': 'United States'}"
641,2.25,2.66,7.94,1.26,74.59,136.2,2,17.01,64,2.26,New York-Northern New Jersey-Long Island,41.4561,-73.7103,"{'id': 155, 'code': 'US', 'name': 'United States'}"
642,4.95,5.45,5.35,1.22,89.29,137.94,2,18.43,57,3.73,PS 19,40.73,-73.984459,"{'id': 155, 'code': 'US', 'name': 'United States'}"
643,3.31,4.38,0.53,0.09,106.4,83.15,3,11.73,58,0.64,PLUMAS,40.301899,-121.235001,"{'id': 155, 'code': 'US', 'name': 'United States'}"
644,2.01,2.23,3.68,0.4,59.68,115.32,1,15.92,68,3.24,CHAUTAUQUA,42.4992,-79.32,"{'id': 155, 'code': 'US', 'name': 'United States'}"
645,2.04,2.27,1.96,0.49,68.57,108.32,2,16.58,74,4.54,Syracuse,43.0528,-76.0597,"{'id': 155, 'code': 'US', 'name': 'United States'}"
646,1.63,1.84,2.82,0.37,65.85,111.46,2,15.69,65,3.84,Corning,42.0972,-77.2103,"{'id': 155, 'code': 'US', 'name': 'United States'}"
647,4.32,4.86,1.29,0.89,112.97,119.47,3,18.31,62,3.22,New York-Northern New Jersey-Long Island,40.8278,-73.0575,"{'id': 155, 'code': 'US', 'name': 'United States'}"
648,4.99,5.66,8.74,1.35,76.07,152.62,2,18.37,57,3.94,KINGS,40.641819,-74.018707,"{'id': 155, 'code': 'US', 'name': 'United States'}"
649,2.3,2.55,4.37,0.74,69.76,115.3,2,16.26,72,2.59,Buffalo-Niagara Falls,42.9925,-78.7764,"{'id': 155, 'code': 'US', 'name': 'United States'}"
650,6.58,8.41,0.93,0.58,125.18,89.74,3,6.44,53,0.98,PLACER,39.166,-120.1488,"{'id': 155, 'code': 'US', 'name': 'United States'}"
652,5.09,5.39,1.64,0.91,98.37,100.98,2,21.69,65,2.5,Nashville-Davidson--Murfreesboro,36.0603,-86.2861,"{'id': 155, 'code': 'US', 'name': 'United States'}"
653,6.29,7.96,0.84,0.44,121.01,88.4,3,9.8,54,0.89,Truckee-Grass Valley,39.3386,-120.170303,"{'id': 155, 'code': 'US', 'name': 'United States'}"
654,0.76,0.89,1.54,0.1,61.99,106.15,2,18.03,71,2.97,Albany-Schenectady-Troy,42.6425,-73.7547,"{'id': 155, 'code': 'US', 'name': 'United States'}"
655,6.87,9.37,2.11,1.36,126.46,93.52,3,16.17,49,1.78,Sacramento--Arden-Arcade--Roseville,38.93568,-121.09959,"{'id': 155, 'code': 'US', 'name': 'United States'}"
656,2.35,2.59,4.14,0.61,63.36,114.18,2,16.09,71,2.34,Buffalo-Niagara Falls,42.8781,-78.8094,"{'id': 155, 'code': 'US', 'name': 'United States'}"
657,2.08,2.36,4.89,1.09,78.98,119.39,2,16.77,69,3.93,Fulton,43.2239,-78.4786,"{'id': 155, 'code': 'US', 'name': 'United States'}"
658,4.51,5.96,0.74,0.21,112.12,87.27,3,14.29,55,0.7,Quincy BAM,39.9369,-120.9478,"{'id': 155, 'code': 'US', 'name': 'United States'}"
659,4.63,6.02,0.8,0.23,114.83,86.89,3,11.87,56,0.41,PLUMAS,39.8134,-120.4707,"{'id': 155, 'code': 'US', 'name': 'United States'}"
660,6.96,9.77,4.67,1.54,115.12,110.21,3,17.92,62,0.54,Lincoln,38.89,-121.3,"{'id': 155, 'code': 'US', 'name': 'United States'}"
661,4.55,4.94,1.6,0.98,105.62,120.78,3,18.29,58,2.9,New York-Northern New Jersey-Long Island,40.7447,-73.5869,"{'id': 155, 'code': 'US', 'name': 'United States'}"
662,4.95,5.45,5.35,1.22,89.29,137.94,2,18.47,56,3.81,Division Street,40.7142,-73.995,"{'id': 155, 'code': 'US', 'name': 'United States'}"
663,8.56,12.14,0.86,0.58,110.32,97.19,3,18.32,71,2.19,Hanford-Corcoran,36.3144,-119.6436,"{'id': 155, 'code': 'US', 'name': 'United States'}"
664,4.95,5.45,5.35,1.22,89.29,137.94,2,18.4,56,3.69,New York-Northern New Jersey-Long Island,40.694401,-73.928596,"{'id': 155, 'code': 'US', 'name': 'United States'}"
665,4.23,4.73,7.0,1.31,83.55,141.92,2,18.45,57,3.38,New York-Northern New Jersey-Long Island,40.814701,-73.886703,"{'id': 155, 'code': 'US', 'name': 'United States'}"
666,4.23,4.73,7.0,1.31,83.55,141.92,2,18.36,58,3.31,New York-Northern New Jersey-Long Island,40.868,-73.8782,"{'id': 155, 'code': 'US', 'name': 'United States'}"
667,8.98,9.33,2.74,1.77,103.22,112.29,3,22.62,66,3.53,Dyersburg,36.0528,-89.3819,"{'id': 155, 'code': 'US', 'name': 'United States'}"
668,10.95,13.05,0.48,0.03,99.39,97.32,2,13.88,65,1.7,Pocatello,42.876701,-112.46029700000001,"{'id': 155, 'code': 'US', 'name': 'United States'}"
669,1.63,1.97,6.67,1.21,75.45,128.25,2,17.38,66,2.28,Poughkeepsie-Newburgh-Middletown,41.7856,-73.6947,"{'id': 155, 'code': 'US', 'name': 'United States'}"
670,5.57,5.83,1.03,1.0,99.98,98.51,2,21.44,69,2.86,Nashville-Davidson--Murfreesboro,35.9514,-87.1375,"{'id': 155, 'code': 'US', 'name': 'United States'}"
671,7.1,13.19,1.65,1.15,98.79,103.67,2,16.22,78,2.91,Vallejo-Fairfield,38.167297,-121.688561,"{'id': 155, 'code': 'US', 'name': 'United States'}"
672,5.21,5.75,1.08,1.05,115.38,119.24,3,18.37,63,5.62,New York-Northern New Jersey-Long Island,40.9617,-72.715,"{'id': 155, 'code': 'US', 'name': 'United States'}"
674,9.9,12.92,0.95,0.41,110.11,102.65,3,14.75,75,0.81,Franklin County,42.013333,-111.80916,"{'id': 155, 'code': 'US', 'name': 'United States'}"
675,9.23,9.77,3.88,2.01,49.35,152.38,1,16.79,69,0.69,León,21.108611111111,-101.68861111111,"{'id': 157, 'code': 'MX', 'name': 'Mexico'}"
676,9.23,9.77,3.88,2.01,49.35,152.38,1,17.23,69,1.02,GUANAJUATO,21.101789,-101.6347,"{'id': 157, 'code': 'MX', 'name': 'Mexico'}"
677,3.05,3.34,2.73,0.29,41.01,150.64,1,16.44,81,1.06,DISTRITO FEDERAL,19.2464,-99.01,"{'id': 157, 'code': 'MX', 'name': 'Mexico'}"
678,7.38,11.34,3.75,1.35,109.83,112.79,3,17.16,73,0.29,Sacramento--Arden-Arcade--Roseville,38.56844,-121.49311,"{'id': 155, 'code': 'US', 'name': 'United States'}"
679,0.62,1.06,0.96,0.23,47.49,75.49,1,9.08,72,1.81,Sydney South-west,-33.9327778,150.9058333,"{'id': 177, 'code': 'AU', 'name': 'Australia'}"
680,8.14,9.99,2.49,0.91,63.36,119.43,2,11.73,80,1.83,Panquehue,-32.797715,-70.898037,"{'id': 3, 'code': 'CL', 'name': 'Chile'}"
682,5.17,7.14,2.77,0.3,74.33,108.62,2,19.28,75,0.74,BDED,35.6075,-82.5833,"{'id': 155, 'code': 'US', 'name': 'United States'}"
683,0.91,0.92,0.19,0.06,49.86,94.8,1,12.34,96,2.64,NEWFOUNDLAND,48.92696,-55.659699999999994,"{'id': 156, 'code': 'CA', 'name': 'Canada'}"
684,6.14,6.59,6.96,1.77,41.97,193.56,1,17.04,86,2.55,GUANAJUATO,20.518317,-100.81591,"{'id': 157, 'code': 'MX', 'name': 'Mexico'}"
685,2.2,4.61,2.4,0.1,51.58,101.4,1,11.29,82,1.37,Temuco,-38.74869912298,-72.620788228172,"{'id': 3, 'code': 'CL', 'name': 'Chile'}"
686,2.13,2.29,0.78,0.08,72.78,108.04,2,19.2,60,3.44,PRINCE EDWARD ISLAND,46.4783,-63.9869,"{'id': 156, 'code': 'CA', 'name': 'Canada'}"
688,2.3,2.83,2.12,0.22,53.6,121.03,1,22.85,95,3.09,Dallas-Fort Worth-Arlington,33.1944,-97.1933,"{'id': 155, 'code': 'US', 'name': 'United States'}"
689,5.58,6.93,0.37,1.33,87.23,87.55,2,14.24,63,0.84,Coquimbo,-29.933006518748,-71.261966365967,"{'id': 3, 'code': 'CL', 'name': 'Chile'}"
690,0.65,1.1,0.97,0.16,44.25,74.43,1,8.77,71,1.38,Sydney South-west,-33.9194444,150.7611111,"{'id': 177, 'code': 'AU', 'name': 'Australia'}"
691,5.83,6.24,6.52,0.74,69.03,146.19,2,18.41,53,2.9,Washington-Arlington-Alexandria,38.894749,-76.953427,"{'id': 155, 'code': 'US', 'name': 'United States'}"
693,5.81,6.07,1.69,2.31,81.73,112.2,2,15.47,71,1.79,GREENE,39.82,-80.2897,"{'id': 155, 'code': 'US', 'name': 'United States'}"
694,0.5,0.59,0.54,0.08,33.13,114.4,1,8.85,72,2.19,Urgakh naran,47.8664611,107.1180194,"{'id': 47, 'code': 'MN', 'name': 'Mongolia'}"
695,4.7,10.5,1.15,2.84,85.41,81.08,2,12.62,64,2.09,Copiapó,-27.370329154948,-70.323906678352,"{'id': 3, 'code': 'CL', 'name': 'Chile'}"
697,19.57,21.47,1.38,0.89,63.53,170.57,2,27.95,84,3.18,"Haldia, Haldia - WBPCB",22.06047,88.109737,"{'id': 9, 'code': 'IN', 'name': 'India'}"
698,4.4,12.3,2.12,1.64,66.99,105.43,2,18.91,86,7.41,Southampton,50.90814,-1.395778,"{'id': 79, 'code': 'GB', 'name': 'United Kingdom'}"
699,10.68,12.81,1.35,1.35,60.45,99.48,2,12.79,63,0.44,Concón,-32.935167,-71.52577,"{'id': 3, 'code': 'CL', 'name': 'Chile'}"
700,6.78,7.18,2.54,1.33,83.17,123.27,2,16.93,71,1.76,Indianapolis,39.749027,-86.186269,"{'id': 155, 'code': 'US', 'name': 'United States'}"
701,0.64,0.94,0.46,0.12,15.69,110.58,1,29.35,64,2.05,Nonthaburi,13.907861,100.535641,"{'id': 111, 'code': 'TH', 'name': 'Thailand'}"
703,6.11,11.77,4.04,0.21,26.45,198.14,1,31.73,61,1.95,Collectorate Jodhpur - RSPCB,26.2920639,73.0379111111111,"{'id': 9, 'code': 'IN', 'name': 'India'}"
704,1.68,2.01,1.1,0.2,65.3,124.6,2,19.94,95,1.79,WEST OLIVE,35.833,-98.583,"{'id': 155, 'code': 'US', 'name': 'United States'}"
705,22.04,23.71,0.74,0.4,130.03,124.26,3,1.09,60,1.91,GBUAPCD EBAM 1,37.23243,-118.599687,"{'id': 155, 'code': 'US', 'name': 'United States'}"
706,4.78,5.75,1.2,0.2,53.58,130.24,1,12.04,76,1.65,Coronel,-36.996430960359,-73.115805357178,"{'id': 3, 'code': 'CL', 'name': 'Chile'}"
707,15.96,17.19,0.75,0.36,127.82,110.51,3,8.25,54,0.47,GBUAPCD EBAM 1,37.956594,-119.120572,"{'id': 155, 'code': 'US', 'name': 'United States'}"
708,15.96,17.19,0.75,0.36,127.82,110.51,3,8.25,54,0.47,GBUAPCD EBAM @ Lee V,37.957109,-119.121087,"{'id': 155, 'code': 'US', 'name': 'United States'}"
709,2.07,4.21,0.6,0.68,65.93,80.86,2,14.75,94,1.86,Port Angeles,48.366058,-124.610046,"{'id': 155, 'code': 'US', 'name': 'United States'}"
710,9.03,29.51,0.55,1.33,83.84,69.45,2,16.19,14,12.52,Calama,-22.460270722943005,-68.937706917007,"{'id': 3, 'code': 'CL', 'name': 'Chile'}"
711,2.33,2.86,2.33,0.02,32.55,122.57,1,11.64,80,2.06,Cayumanqui,-36.683859,-72.465292,"{'id': 3, 'code': 'CL', 'name': 'Chile'}"
712,1.55,2.35,0.24,0.11,91.0,81.55,2,14.36,90,1.12,Sheridan,44.815142,-106.955933,"{'id': 155, 'code': 'US', 'name': 'United States'}"
713,3.43,3.73,1.11,0.13,66.19,121.48,2,22.8,92,2.28,DBT,32.4983,-86.1367,"{'id': 155, 'code': 'US', 'name': 'United States'}"
714,8.11,9.45,4.77,1.48,87.31,128.25,2,22.49,72,0.93,Huntsville,34.6917,-86.591698,"{'id': 155, 'code': 'US', 'name': 'United States'}"
715,4.5,4.78,1.87,1.26,111.61,107.13,3,19.83,64,2.91,Bowling Green,37.1314,-86.1481,"{'id': 155, 'code': 'US', 'name': 'United States'}"
716,16.42,18.16,1.87,0.99,55.72,191.49,2,28.4,81,3.36,"Rabindra Bharati University, Kolkata - WBSPCB",22.627875,88.3804,"{'id': 9, 'code': 'IN', 'name': 'India'}"
717,0.75,2.51,0.43,0.16,22.67,86.83,1,29.16,77,1.95,Rayong,12.97378333,101.21285,"{'id': 111, 'code': 'TH', 'name': 'Thailand'}"
718,1.59,3.98,0.92,0.42,67.83,106.67,2,19.28,69,6.17,Manchester,53.48481,-2.334139,"{'id': 79, 'code': 'GB', 'name': 'United Kingdom'}"
719,6.2,6.69,3.94,2.07,78.98,129.33,2,16.01,72,0.37,LIVONIA NEAR ROAD,42.421494,-83.425168,"{'id': 155, 'code': 'US', 'name': 'United States'}"
720,0.99,1.26,1.6,0.03,52.23,101.5,1,11.69,78,4.24,Colicheu,-37.023623,-72.277476,"{'id': 3, 'code': 'CL', 'name': 'Chile'}"
721,9.39,13.76,0.29,0.04,105.44,91.62,3,15.71,68,1.48,Brigham City,41.492802,-112.0187,"{'id': 155, 'code': 'US', 'name': 'United States'}"
723,4.97,5.26,2.0,0.29,74.23,120.2,2,13.73,94,0.33,TAYLOR,45.2039,-90.6,"{'id': 155, 'code': 'US', 'name': 'United States'}"
724,14.92,16.02,0.44,0.02,110.56,100.11,3,9.87,52,2.56,BLAINE,43.682556,-114.371094,"{'id': 155, 'code': 'US', 'name': 'United States'}"
725,11.97,14.13,8.56,0.52,45.5,259.57,2,11.26,76,1.76,Independencia,-33.422301,-70.651162,"{'id': 3, 'code': 'CL', 'name': 'Chile'}"
726,1.17,2.64,1.08,0.24,55.05,112.86,1,16.42,96,7.89,Ballymena,54.861595,-6.250873,"{'id': 79, 'code': 'GB', 'name': 'United Kingdom'}"
727,14.54,14.98,0.6,0.19,104.67,111.46,3,12.67,83,1.79,OKANOGAN,48.4772,-120.1906,"{'id': 155, 'code': 'US', 'name': 'United States'}"
728,6.73,7.05,0.29,0.03,97.44,77.49,2,12.04,84,0.47,Ronan-MT,47.8831,-114.1681,"{'id': 155, 'code': 'US', 'name': 'United States'}"
729,3.17,7.5,0.05,1.81,48.32,72.17,1,15.32,53,1.09,Hawaii Volcanoes NP,19.4203,-155.2881,"{'id': 155, 'code': 'US', 'name': 'United States'}"
730,0.56,0.95,0.98,0.21,44.8,76.57,1,8.72,70,2.29,Illawarra,-34.4763889,150.8175,"{'id': 177, 'code': 'AU', 'name': 'Australia'}"
731,3.23,10.53,1.21,0.9,75.67,104.55,2,18.14,90,7.88,Bristol,51.462839,-2.584482,"{'id': 79, 'code': 'GB', 'name': 'United Kingdom'}"
732,3.92,4.62,2.7,0.78,73.62,118.84,2,15.06,59,2.58,Chambersburg,39.9611,-77.4756,"{'id': 155, 'code': 'US', 'name': 'United States'}"
733,0.78,1.41,1.62,0.17,38.84,79.71,1,6.22,72,1.81,Sydney South-west,-34.0530556,150.4972222,"{'id': 177, 'code': 'AU', 'name': 'Australia'}"
734,3.34,3.71,2.52,1.24,83.16,114.91,2,16.34,72,1.71,Galleria,41.504661,-81.690186,"{'id': 155, 'code': 'US', 'name': 'United States'}"
735,3.37,3.71,2.94,1.03,80.55,117.32,2,16.16,71,1.49,Cleveland-Elyria-Mentor,41.36189,-81.864608,"{'id': 155, 'code': 'US', 'name': 'United States'}"
736,2.72,3.08,1.97,1.21,78.6,110.7,2,15.36,74,2.09,Headstart,41.095938,-80.658467,"{'id': 155, 'code': 'US', 'name': 'United States'}"
737,3.97,6.31,0.22,0.14,60.53,106.45,2,27.13,94,0.99,Beaumont-Port Arthur,29.865,-93.955,"{'id': 155, 'code': 'US', 'name': 'United States'}"
738,5.1,6.98,0.4,0.97,105.16,95.66,3,14.55,67,0.45,SAN JUAN,38.4583,-109.8211,"{'id': 155, 'code': 'US', 'name': 'United States'}"
739,5.54,5.92,4.56,0.74,73.99,134.94,2,18.1,53,2.91,Washington-Arlington-Alexandria,38.921848,-77.013176,"{'id': 155, 'code': 'US', 'name': 'United States'}"
740,4.43,7.04,0.59,0.62,96.92,104.35,2,15.51,93,3.73,SYDNEY,46.1425,-60.1728,"{'id': 156, 'code': 'CA', 'name': 'Canada'}"
741,8.05,11.13,0.63,0.4,84.58,124.98,2,18.24,56,0.99,NOVA SCOTIA,45.07254,-64.84025,"{'id': 156, 'code': 'CA', 'name': 'Canada'}"
742,2.53,4.6,2.44,0.72,55.14,105.34,1,20.09,59,7.65,York,53.967513,-1.086514,"{'id': 79, 'code': 'GB', 'name': 'United Kingdom'}"
743,21.07,21.99,0.61,0.14,119.48,120.54,3,13.8,89,0.87,STEVENS,48.54469,-117.903222,"{'id': 155, 'code': 'US', 'name': 'United States'}"
744,2.12,2.2,0.75,0.16,40.54,97.79,1,17.87,77,0.61,NEW BRUNSWICK,47.60952799999999,-65.633528,"{'id': 156, 'code': 'CA', 'name': 'Canada'}"
746,4.25,4.99,1.45,0.62,87.6,118.46,2,20.94,45,1.22,NEW BRUNSWICK,46.101389000000005,-64.789639,"{'id': 156, 'code': 'CA', 'name': 'Canada'}"
747,2.91,4.43,0.4,0.39,106.72,100.82,3,18.05,71,3.15,NOVA SCOTIA,45.614028,-61.362122,"{'id': 156, 'code': 'CA', 'name': 'Canada'}"
748,2.38,2.84,1.06,0.2,80.25,105.76,2,20.52,49,3.25,PRINCE EDWARD ISLAND,46.2406,-63.1306,"{'id': 156, 'code': 'CA', 'name': 'Canada'}"
749,7.91,9.97,1.41,0.99,97.07,146.34,2,17.69,60,2.5,NEW BRUNSWICK,45.308778,-66.008333,"{'id': 156, 'code': 'CA', 'name': 'Canada'}"
750,4.75,5.31,0.24,0.1,67.79,105.18,2,29.35,78,2.76,Tampa-St. Petersburg-Clearwater,27.864273,-82.383359,"{'id': 155, 'code': 'US', 'name': 'United States'}"
751,1.03,1.05,1.25,0.04,32.28,104.48,1,12.69,92,1.17,ST LEONARD,47.1542,-67.8347,"{'id': 156, 'code': 'CA', 'name': 'Canada'}"
754,2.33,2.56,1.62,0.41,55.11,118.99,1,14.64,88,0.96,FREDERICTON,45.9578,-66.6475,"{'id': 156, 'code': 'CA', 'name': 'Canada'}"
755,2.28,4.86,0.62,0.47,59.77,101.13,1,12.45,96,9.46,NEWFOUNDLAND,47.50513,-52.794799999999995,"{'id': 156, 'code': 'CA', 'name': 'Canada'}"
756,4.99,5.13,1.28,0.28,70.25,126.33,2,21.96,88,1.96,TULSA,36.149876,-96.011665,"{'id': 155, 'code': 'US', 'name': 'United States'}"
757,6.36,6.62,3.09,1.59,75.6,121.62,2,18.26,73,2.34,Decatur,39.8669,-88.9256,"{'id': 155, 'code': 'US', 'name': 'United States'}"
758,6.88,6.98,0.17,0.05,76.89,96.83,2,12.84,69,1.49,BRITISH COLUMBIA,52.14428,-122.150391,"{'id': 156, 'code': 'CA', 'name': 'Canada'}"
759,3.95,4.42,4.29,0.54,42.2,193.32,1,14.2,81,0.52,MEXICO STATE,19.577,-99.2542,"{'id': 157, 'code': 'MX', 'name': 'Mexico'}"
760,3.2,3.31,1.64,0.17,68.84,112.68,2,16.16,95,2.0,Rochester,43.9947,-92.4497,"{'id': 155, 'code': 'US', 'name': 'United States'}"
762,5.19,5.38,1.28,0.29,77.95,134.92,2,17.77,87,0.49,Jajce,44.34299999997694,17.26790000027696,"{'id': 132, 'code': 'BA', 'name': 'Bosnia and Herzegovina'}"
763,7.6,7.91,1.56,0.19,46.59,139.87,1,17.77,89,2.56,Brist,44.202,17.8,"{'id': 132, 'code': 'BA', 'name': 'Bosnia and Herzegovina'}"
764,2.97,9.42,1.31,0.83,76.28,103.14,2,18.46,90,10.11,Newport,51.601203,-2.977281,"{'id': 79, 'code': 'GB', 'name': 'United Kingdom'}"
765,4.3,5.32,1.14,0.24,68.74,108.67,2,24.52,93,2.2,Lafayette,30.008887,-91.869595,"{'id': 155, 'code': 'US', 'name': 'United States'}"
767,2.26,3.1,2.96,0.07,46.18,128.1,1,11.42,81,3.58,Chillán,-36.594880886514,-72.089253650482,"{'id': 3, 'code': 'CL', 'name': 'Chile'}"
768,2.92,4.7,2.49,0.66,55.98,103.04,1,20.25,52,7.94,Scunthorpe,53.58634,-0.636811,"{'id': 79, 'code': 'GB', 'name': 'United Kingdom'}"
769,3.48,4.24,0.3,0.07,100.69,84.58,3,13.27,79,0.7,RIO BLANCO,40.086941,-108.761002,"{'id': 155, 'code': 'US', 'name': 'United States'}"
770,10.68,12.81,1.35,1.35,60.45,99.48,2,13.0,63,0.46,Concón,-32.915458,-71.48148,"{'id': 3, 'code': 'CL', 'name': 'Chile'}"
771,5.69,7.06,1.99,0.45,73.33,105.8,2,20.82,71,0.81,Knoxville,36.085,-83.7644,"{'id': 155, 'code': 'US', 'name': 'United States'}"
772,6.24,8.5,2.34,0.42,67.33,106.31,2,21.2,74,0.67,Knoxville,35.9803,-83.9306,"{'id': 155, 'code': 'US', 'name': 'United States'}"
773,6.01,7.64,2.23,0.55,76.11,107.61,2,21.1,72,0.67,Knoxville,36.0183,-83.8761,"{'id': 155, 'code': 'US', 'name': 'United States'}"
774,4.04,6.66,0.44,0.39,108.55,101.01,3,21.06,49,1.82,NOVA SCOTIA,44.7198,-63.48076,"{'id': 156, 'code': 'CA', 'name': 'Canada'}"
777,1.58,1.62,0.2,0.05,75.38,96.16,2,16.12,70,2.46,NEWFOUNDLAND,50.7123,-57.3642,"{'id': 156, 'code': 'CA', 'name': 'Canada'}"
778,2.04,2.17,1.38,0.33,48.54,106.87,1,19.17,46,2.1,Lower Newcastle,47.0708,-65.4244,"{'id': 156, 'code': 'CA', 'name': 'Canada'}"
779,2.28,4.86,0.62,0.47,59.77,101.13,1,13.25,96,10.05,NEWFOUNDLAND,47.56038,-52.7115,"{'id': 156, 'code': 'CA', 'name': 'Canada'}"
780,10.31,14.76,0.69,0.64,96.34,137.86,2,17.27,78,4.39,DAYTON,43.8333,-66.0833,"{'id': 156, 'code': 'CA', 'name': 'Canada'}"
781,5.77,6.59,0.27,0.9,96.99,90.78,2,13.18,64,2.47,CARBON,39.595798,-110.76999700000002,"{'id': 155, 'code': 'US', 'name': 'United States'}"
782,5.9,8.15,0.53,0.3,85.63,114.08,2,19.8,56,0.79,NOVA SCOTIA,45.067284,-64.477425,"{'id': 156, 'code': 'CA', 'name': 'Canada'}"
784,6.96,20.76,0.55,1.09,85.83,76.33,2,16.27,90,0.54,San Luis Obispo - Hi,35.25639,-120.668892,"{'id': 155, 'code': 'US', 'name': 'United States'}"
785,5.95,8.1,0.65,0.41,116.93,85.18,3,16.72,71,2.5,Merced,37.2817,-120.433601,"{'id': 155, 'code': 'US', 'name': 'United States'}"
786,6.03,8.45,0.72,0.41,110.53,87.92,3,17.21,71,2.34,Madera,36.8669,-120.01,"{'id': 155, 'code': 'US', 'name': 'United States'}"
787,9.97,12.02,0.67,0.41,117.22,95.02,3,18.5,68,1.77,Fresno,36.5975,-119.5036,"{'id': 155, 'code': 'US', 'name': 'United States'}"
788,7.79,17.26,0.68,1.0,93.68,94.36,2,17.44,55,0.81,Bakersfield,35.0544,-119.4039,"{'id': 155, 'code': 'US', 'name': 'United States'}"
789,5.91,7.8,0.78,0.36,110.91,87.66,3,17.48,71,0.79,Fresno,36.8414,-119.8744,"{'id': 155, 'code': 'US', 'name': 'United States'}"
790,7.27,9.0,0.7,0.35,115.08,89.71,3,17.91,69,0.8,Fresno,36.81919899999999,-119.71640000000001,"{'id': 155, 'code': 'US', 'name': 'United States'}"
791,6.91,11.19,0.74,0.86,109.75,91.6,3,16.37,74,2.34,Modesto,37.4883,-120.83580000000002,"{'id': 155, 'code': 'US', 'name': 'United States'}"
792,7.87,9.97,0.81,0.42,113.92,92.75,3,17.94,68,0.34,Fresno,36.7056,-119.7414,"{'id': 155, 'code': 'US', 'name': 'United States'}"
793,6.47,13.09,0.64,1.03,97.49,90.43,2,15.43,79,1.36,Stockton,37.6825,-121.4406,"{'id': 155, 'code': 'US', 'name': 'United States'}"
794,4.57,9.12,2.69,1.71,64.22,100.52,2,19.64,78,9.91,Storrington,50.916932,-0.449548,"{'id': 79, 'code': 'GB', 'name': 'United Kingdom'}"
795,7.14,7.87,6.41,0.73,46.73,226.33,1,15.58,80,0.2,MEXICO STATE,19.7221,-99.1986,"{'id': 157, 'code': 'MX', 'name': 'Mexico'}"
797,5.59,8.5,4.68,1.15,13.71,154.14,1,25.53,73,6.02,City Railway Station - KSPCB,12.9773472,77.5706972222222,"{'id': 9, 'code': 'IN', 'name': 'India'}"
798,0.54,0.69,0.28,0.08,17.57,98.41,1,29.01,64,1.96,"Din Daeng Rd., Din Daeng",13.762406000000002,100.550598,"{'id': 111, 'code': 'TH', 'name': 'Thailand'}"
799,2.86,3.82,0.45,0.07,104.75,81.32,3,8.69,54,2.19,Redding,40.5403,-121.5764,"{'id': 155, 'code': 'US', 'name': 'United States'}"
800,1.46,1.8,2.78,0.66,53.15,99.63,1,18.87,70,8.5,Aberdeen,57.15736,-2.094278,"{'id': 79, 'code': 'GB', 'name': 'United Kingdom'}"
801,7.56,8.06,1.15,0.26,60.12,118.39,2,21.35,83,1.69,ADAIR,35.750599,-94.669701,"{'id': 155, 'code': 'US', 'name': 'United States'}"
802,5.65,6.17,2.54,0.22,80.25,116.57,2,22.65,76,1.46,Due West,34.325298,-82.386101,"{'id': 155, 'code': 'US', 'name': 'United States'}"
803,2.69,10.54,0.74,0.92,83.67,98.43,2,18.2,92,9.88,Barnstaple,51.074793,-4.041924,"{'id': 79, 'code': 'GB', 'name': 'United Kingdom'}"
804,4.06,6.82,4.3,1.84,62.12,97.6,2,20.72,62,7.53,Wicken Fen,52.2985,0.290917,"{'id': 79, 'code': 'GB', 'name': 'United Kingdom'}"
805,8.77,11.41,4.11,2.27,81.11,117.63,2,14.62,93,0.86,Seattle-Tacoma-Bellevue,48.246799,-121.603104,"{'id': 155, 'code': 'US', 'name': 'United States'}"
806,9.34,17.05,0.34,0.18,112.99,89.42,3,25.97,30,1.04,Bishop,36.5092,-116.8481,"{'id': 155, 'code': 'US', 'name': 'United States'}"
807,6.49,6.7,1.39,0.36,85.06,109.55,2,22.87,72,1.85,Columbia,34.093899,-80.962196,"{'id': 155, 'code': 'US', 'name': 'United States'}"
808,6.42,7.71,1.27,0.19,51.44,142.96,1,11.54,76,0.59,Talcahuano,-36.769803,-73.113708,"{'id': 3, 'code': 'CL', 'name': 'Chile'}"
809,0.68,1.07,0.24,0.24,77.87,85.51,2,15.18,88,2.11,Rapid City,44.155636,-103.315765,"{'id': 155, 'code': 'US', 'name': 'United States'}"
810,6.42,7.71,1.27,0.19,51.44,142.96,1,11.54,76,0.59,Hualpén,-36.780632,-73.115657,"{'id': 3, 'code': 'CL', 'name': 'Chile'}"
811,0.5,0.5,0.61,0.01,35.49,113.49,1,10.83,64,2.97,Tolgoit,47.922495,106.794805,"{'id': 47, 'code': 'MN', 'name': 'Mongolia'}"
812,6.42,7.71,1.27,0.19,51.44,142.96,1,11.54,76,0.59,Hualpén,-36.791231,-73.119152,"{'id': 3, 'code': 'CL', 'name': 'Chile'}"
813,0.5,0.5,0.38,0.01,61.75,95.11,2,17.76,89,3.14,JACKSON,43.746944000000006,-101.941109,"{'id': 155, 'code': 'US', 'name': 'United States'}"
814,0.68,1.07,0.24,0.24,77.87,85.51,2,15.4,87,2.3,Rapid City,44.087397,-103.273777,"{'id': 155, 'code': 'US', 'name': 'United States'}"
815,1.31,2.65,0.82,0.25,51.14,76.87,1,19.45,75,1.6,Albuquerque,35.0186,-106.65190099999998,"{'id': 155, 'code': 'US', 'name': 'United States'}"
817,3.31,3.62,2.04,2.07,76.78,110.59,2,15.47,74,1.68,Pittsburgh,40.747799,-80.316704,"{'id': 155, 'code': 'US', 'name': 'United States'}"
818,0.88,1.32,0.29,0.34,81.18,84.22,2,14.61,88,1.1,CUSTER,43.557613,-103.483658,"{'id': 155, 'code': 'US', 'name': 'United States'}"
819,5.9,15.29,0.03,0.38,73.38,69.19,2,15.38,73,2.01,Ate,-12.0261111,-76.9186111,"{'id': 5, 'code': 'PE', 'name': 'Peru'}"
821,8.03,8.05,2.28,0.76,74.72,121.69,2,18.5,89,3.56,Sioux Falls,43.54792,-96.700768,"{'id': 155, 'code': 'US', 'name': 'United States'}"
822,5.21,5.28,1.26,0.52,89.17,106.86,2,17.52,90,3.07,CODINGTON,44.89965,-97.128802,"{'id': 155, 'code': 'US', 'name': 'United States'}"
823,7.47,7.52,1.44,0.72,89.88,115.02,2,17.48,89,3.15,BROOKINGS,44.348604,-96.807299,"{'id': 155, 'code': 'US', 'name': 'United States'}"
824,1.75,3.35,2.25,0.91,57.06,105.12,1,20.07,59,7.72,Middlesbrough,54.56929699999999,-1.220874,"{'id': 79, 'code': 'GB', 'name': 'United Kingdom'}"
825,7.19,22.96,0.22,0.49,74.92,81.92,2,19.89,75,0.77,San Diego-Carlsbad-San Marcos,32.579361,-116.929486,"{'id': 155, 'code': 'US', 'name': 'United States'}"
826,0.67,1.13,0.83,0.18,48.7,73.97,1,9.01,71,1.21,Sydney North-west,-33.7972222,150.7658333,"{'id': 177, 'code': 'AU', 'name': 'Australia'}"
827,1.31,2.65,0.82,0.25,51.14,76.87,1,19.15,74,1.49,Albuquerque,35.1441,-106.6044,"{'id': 155, 'code': 'US', 'name': 'United States'}"
828,4.29,6.05,2.35,1.14,97.68,129.88,2,18.22,59,3.69,Atlantic City,39.46487,-74.448738,"{'id': 155, 'code': 'US', 'name': 'United States'}"
829,5.28,5.61,1.74,1.17,85.01,122.77,2,16.2,78,1.83,South Bend-Mishawaka,41.754722,-86.11,"{'id': 155, 'code': 'US', 'name': 'United States'}"
